timestamp,gyro_rad[0],gyro_rad[1],gyro_rad[2],accelerometer_m_s2[0],accelerometer_m_s2[1],accelerometer_m_s2[2],latitude_deg,longitude_deg,altitude_msl_m,vel_m_s,vel_n_m_s,vel_e_m_s,vel_d_m_s,lat,lon,alt,motor_failure_flag,failed_motor
1731242107723238,0.0024965813,-0.003049372,-0.0018536038,-0.1460464,0.1879834,-9.937177,47.3977508,8.5456075,488.091,0.0,0.019999999552965164,0.009999999776482582,0.0,47.39775074917237,8.545607333922602,488.1408996582031,0,0
1731242108123097,0.0035618441,-0.004380954,0.0016085054,-0.14604641,0.12453706,-9.946755,47.3977508,8.5456074,488.096,0.0,0.0,0.0,0.019999999552965164,47.39775078346586,8.545607402754658,488.1437072753906,0,0
1731242108515974,0.17320523,-0.0054462343,-0.002119882,-0.15083483,0.1628443,-10.304688,47.3977508,8.5456074,488.09700000000004,0.0,0.009999999776482582,-0.019999999552965164,0.009999999776482582,47.39775081888501,8.545607446801391,488.1421813964844,0,0
1731242108916247,-0.18126155,-0.11996209,0.0016086588,-0.1029508,0.10897477,-10.88169,47.397750699999996,8.5456074,488.137,0.07000000029802322,-0.05999999865889549,-0.009999999776482582,-0.10999999940395355,47.39775063381477,8.54560720750835,488.18707275390625,0,0
1731242109316082,-0.032390825,-0.010506235,-0.0058483817,-0.09696528,0.11974867,-9.909645,47.397749999999995,8.5456069,488.253,0.26999998092651367,-0.23999999463558197,-0.14000000059604645,-0.4599999785423279,47.397750128407054,8.545606670766253,488.3384704589844,0,0
1731242109716395,-0.035054,-0.026751494,-0.0031851497,-0.0981624,0.08862407,-10.267579,47.3977492,8.545606099999999,488.458,0.22999998927116394,-0.1899999976158142,-0.10999999940395355,-0.550000011920929,47.39774950566789,8.545606185773465,488.5355224609375,0,0
1731242110113244,-0.009753961,-0.008908333,-0.0074462323,-0.12569575,0.14608493,-10.089211,47.3977487,8.5456056,488.70300000000003,0.14000000059604645,-0.12999999523162842,-0.05999999865889549,-0.6800000071525574,47.39774897684912,8.545605823610497,488.7729797363281,0,0
1731242110513299,0.0027629016,-0.0019841108,-0.0039841314,-0.11133051,0.17481533,-9.929996,47.3977484,8.5456053,488.978,0.019999999552965164,0.0,-0.019999999552965164,-0.6699999570846558,47.39774871693193,8.545605692216155,489.0371398925781,0,0
1731242110913591,0.017410284,-0.0051799,-0.0018536047,-0.14484933,0.21312255,-9.864157,47.3977485,8.5456053,489.257,0.07000000029802322,0.03999999910593033,0.009999999776482582,-0.7099999785423279,47.39774878477725,8.545605706483524,489.31103515625,0,0
1731242111314158,0.008888166,-0.009707276,-0.0034514999,-0.14963774,0.20953123,-9.79592,47.397748899999996,8.545605499999999,489.529,0.14000000059604645,0.11999999731779099,0.03999999910593033,-0.6800000071525574,47.3977490012462,8.54560579999738,489.570068359375,0,0
1731242111717030,0.020872388,0.0044074915,-0.006913607,-0.13407542,0.22748773,-9.763599,47.397749499999996,8.5456057,489.788,0.17000000178813934,0.17999999225139618,0.05999999865889549,-0.6200000047683716,47.39774942558777,8.545606035669712,489.82330322265625,0,0
1731242112116134,0.024334507,-0.007843063,-0.0005220152,-0.16400295,0.22389644,-8.646706,47.397750099999996,8.545606099999999,490.00800000000004,0.17000000178813934,0.17000000178813934,0.04999999701976776,-0.5,47.39774998989678,8.545606300191166,490.0285949707031,0,0
1731242112516246,0.015546075,-0.004647262,-0.0031851782,-0.17238267,0.18918055,-10.072452,47.397750699999996,8.5456065,490.13,0.14999999105930328,0.14999999105930328,0.07000000029802322,-0.17000000178813934,47.39775053474189,8.545606522352292,490.11566162109375,0,0
1731242112916658,0.010219751,0.0062716897,-0.0021199123,-0.13646962,0.16404141,-9.902463,47.3977511,8.5456069,490.19800000000004,0.09999999403953552,0.07000000029802322,0.04999999701976776,-0.17999999225139618,47.39775101859671,8.545606836604803,490.20050048828125,0,0
1731242113316603,-0.007889741,-0.00438096,-0.0050494093,-0.14724356,0.14967622,-9.885706,47.397751199999995,8.5456071,490.253,0.05999999865889549,0.029999999329447746,0.05999999865889549,-0.17999999225139618,47.397751228400224,8.545607093843886,490.2745666503906,0,0
1731242113713251,-0.004161321,0.00014642658,-0.0015872848,-0.12210442,0.14129649,-9.879718,47.397751199999995,8.5456074,490.321,0.04999999701976776,0.0,0.05999999865889549,-0.1599999964237213,47.397751264988365,8.54560734588768,490.33660888671875,0,0
1731242114113307,-0.0041613234,-0.00065253046,0.0018748217,-0.14724356,0.11974868,-9.878522,47.3977511,8.5456077,490.369,0.04999999701976776,-0.03999999910593033,0.019999999552965164,-0.14000000059604645,47.39775121686208,8.545607611002525,490.38922119140625,0,0
1731242114513936,-0.008422389,-0.0099735875,0.0016084929,-0.08978271,0.13411388,-9.912041,47.3977509,8.545607799999999,490.416,0.05999999865889549,-0.05999999865889549,0.009999999776482582,-0.09999999403953552,47.397751076386285,8.545607722367535,490.4349670410156,0,0
1731242114922783,-0.011618175,-0.01023991,-0.002918858,-0.12449864,0.1556617,-9.9216175,47.397750699999996,8.545607799999999,490.462,0.05999999865889549,-0.07000000029802322,0.0,-0.07999999821186066,47.397750862342775,8.545607738885048,490.4701843261719,0,0
1731242115322969,-0.008688697,-0.009707273,-0.0010546522,-0.105344996,0.15087329,-9.913236,47.3977504,8.545607799999999,490.495,0.05999999865889549,-0.07000000029802322,-0.019999999552965164,-0.11999999731779099,47.39775063395762,8.545607722137165,490.4989013671875,0,0
1731242115723344,-0.00496027,-0.0078430595,-0.0015872823,-0.09337398,0.13411388,-9.949148,47.3977502,8.5456077,490.522,0.03999999910593033,-0.03999999910593033,-0.009999999776482582,-0.05999999865889549,47.39775042086028,8.545607657431686,490.5275573730469,0,0
1731242116116038,0.0006323671,-0.0065114815,0.0018748239,-0.0921769,0.1424936,-9.92042,47.397750099999996,8.5456075,490.54,0.019999999552965164,0.0,-0.019999999552965164,-0.05999999865889549,47.39775028800845,8.545607602564871,490.54742431640625,0,0
1731242116516357,0.009953434,-0.013169382,1.0617895e-05,-0.12210442,0.18439212,-9.970697,47.397750099999996,8.5456075,490.563,0.019999999552965164,-0.009999999776482582,-0.019999999552965164,-0.04999999701976776,47.397750299027976,8.5456075159235,490.5635986328125,0,0
1731242116916708,0.0008986842,-0.0006525271,-0.0007883354,-0.09457112,0.18558924,-9.916829,47.3977502,8.5456075,490.58500000000004,0.019999999552965164,0.029999999329447746,-0.009999999776482582,-0.029999999329447746,47.39775030163189,8.545607434159148,490.57708740234375,0,0
1731242117312968,0.00888817,-0.009707276,0.0040053483,-0.1005566,0.17361821,-9.961122,47.3977503,8.5456073,490.596,0.019999999552965164,0.04999999701976776,-0.009999999776482582,-0.07000000029802322,47.39775036003369,8.545607395392066,490.5881042480469,0,0
1731242117714194,0.007023957,-0.009174641,0.00027692557,-0.12210442,0.1544646,-9.903661,47.3977504,8.5456073,490.625,0.019999999552965164,0.0,0.0,-0.04999999701976776,47.39775051413152,8.545607365648577,490.60028076171875,0,0
1731242118113816,-0.0076234345,-0.008908319,-0.0005220207,-0.08140298,0.19157471,-9.915631,47.3977504,8.5456073,490.625,0.009999999776482582,0.019999999552965164,-0.009999999776482582,-0.04999999701976776,47.39775056080414,8.545607354141314,490.6106872558594,0,0
1731242118514742,0.0038281477,-0.015033596,0.0021411425,-0.12330152,0.120945774,-9.931193,47.3977504,8.5456073,490.641,0.009999999776482582,0.0,0.009999999776482582,-0.04999999701976776,47.3977505655288,8.545607308592052,490.6187744140625,0,0
1731242118923255,-0.0033623725,0.00094537134,-0.00052202004,-0.13407542,0.17960373,-9.94915,47.3977505,8.5456074,490.65500000000003,0.009999999776482582,0.0,0.009999999776482582,-0.019999999552965164,47.39775055370844,8.545607331529663,490.62457275390625,0,0
1731242119316621,-0.0036286872,-0.006511484,-0.002386238,-0.12808992,0.1676327,-9.9299965,47.3977505,8.5456075,490.651,0.019999999552965164,0.0,0.019999999552965164,-0.019999999552965164,47.39775055412614,8.545607392607245,490.6282958984375,0,0
1731242119716534,0.003295527,-0.0041146353,0.002940088,-0.16400291,0.1736182,-9.925208,47.397750599999995,8.5456076,490.65500000000003,0.029999999329447746,0.009999999776482582,0.019999999552965164,0.0,47.39775055654086,8.545607473948653,490.6300048828125,0,0
1731242120116540,0.009154484,-0.0030493722,1.0606545e-05,-0.11611891,0.1460849,-9.95633,47.397750699999996,8.545607799999999,490.663,0.029999999329447746,0.009999999776482582,0.04999999701976776,0.029999999329447746,47.3977505846769,8.545607568867187,490.6307373046875,0,0
1731242120516852,0.005159743,0.004940111,-0.0034514994,-0.11971024,0.14009944,-9.935982,47.397750699999996,8.5456079,490.685,0.029999999329447746,0.03999999910593033,0.03999999910593033,-0.029999999329447746,47.397750637798616,8.545607796663521,490.6303405761719,0,0
1731242120913209,0.012350279,-0.0006525237,-0.0029188627,-0.12090733,0.18080086,-9.933589,47.3977508,8.545608,490.696,0.019999999552965164,0.029999999329447746,0.029999999329447746,-0.029999999329447746,47.39775075255667,8.54560799569782,490.63629150390625,0,0
1731242121314251,0.0030292135,-0.0009188445,-0.005582028,-0.08978269,0.1700269,-9.920419,47.3977509,8.545608,490.712,0.009999999776482582,0.029999999329447746,0.019999999552965164,-0.03999999910593033,47.39775085911163,8.545608123681188,490.6429748535156,0,0
1731242121714668,0.0059586926,-0.0065114805,-0.0029188693,-0.075417474,0.1448878,-9.890492,47.3977509,8.545608099999999,490.726,0.009999999776482582,-0.009999999776482582,-0.019999999552965164,-0.08999999612569809,47.39775094483239,8.545608154913472,490.6478576660156,0,0
1731242122114945,-0.0060255374,-0.007843058,1.060914e-05,-0.09816238,0.14488779,-9.933585,47.3977509,8.5456079,490.736,0.019999999552965164,-0.009999999776482582,-0.029999999329447746,-0.019999999552965164,47.39775093683174,8.54560806394307,490.6587829589844,0,0
1731242122523381,-0.002563425,-0.009707274,-0.0015872917,-0.10893629,0.16164719,-9.91563,47.3977509,8.545607799999999,490.74,0.029999999329447746,-0.009999999776482582,-0.029999999329447746,0.009999999776482582,47.39775088090525,8.545607890529489,490.66278076171875,0,0
1731242122915712,-0.00096553104,-0.007843062,-0.0015872908,-0.1077392,0.16763273,-9.9455595,47.3977508,8.5456077,490.75800000000004,0.019999999552965164,-0.019999999552965164,0.0,-0.009999999776482582,47.397750836787566,8.545607720428453,490.6611328125,0,0
1731242123316117,-0.002030793,0.0022769514,0.00080955663,-0.11372471,0.19157474,-9.922814,47.397750699999996,8.5456076,490.772,0.009999999776482582,-0.009999999776482582,-0.019999999552965164,-0.05999999865889549,47.39775077870821,8.545607684266008,490.6631774902344,0,0
1731242123712980,0.0030292172,-0.008908328,-0.002119919,-0.12449863,0.1568588,-9.915632,47.397750699999996,8.5456076,490.77500000000003,0.0,0.009999999776482582,0.0,-0.05999999865889549,47.397750732205495,8.545607617620686,490.6700744628906,0,0
1731242124117040,0.0070239566,-0.0065114815,0.0008095589,-0.106542096,0.18080084,-9.890493,47.397750699999996,8.5456077,490.797,0.0,0.0,0.019999999552965164,-0.04999999701976776,47.39775075144421,8.545607583736102,490.6738586425781,0,0
1731242124513490,3.115204,-1.0757747,-0.8077015,-0.16520004,0.27297744,-0.90026456,47.397750699999996,8.545607799999999,490.78000000000003,0.03999999910593033,-0.029999999329447746,0.019999999552965164,0.5399999618530273,47.39775053352314,8.545607784433326,490.4776916503906,1,1
1731242124914928,5.563427,-1.2685621,-1.3606828,0.23702584,-0.27409765,-0.4154387,47.3977502,8.5456082,489.858,0.29999998211860657,-0.25,0.17000000178813934,4.099999904632568,47.39774986247492,8.545608096334275,489.1026611328125,1,1
1731242125322803,9.973511e-05,-0.0065114815,1.0610445e-05,-0.11252762,0.17242077,9.686895,47.397749999999995,8.5456104,488.092,0.0,0.0,0.019999999552965164,0.009999999776482582,47.39775312000114,8.545609088905412,486.2059631347656,1,1
1731242125715610,0.0011650005,-0.0065114805,-0.0034515033,-0.12569572,0.15207006,9.715625,47.3977499,8.5456104,488.11,0.0,-0.009999999776482582,-0.009999999776482582,-0.019999999552965164,47.39775866588855,8.545609206557023,483.422607421875,1,1
1731242126115925,0.004893426,-0.0075767464,1.0613454e-05,-0.16520005,0.1760121,9.683305,47.3977499,8.5456104,488.098,0.0,0.009999999776482582,0.0,-0.009999999776482582,47.39775993165416,8.545609166952024,480.99615478515625,1,1
1731242126516416,0.00089868996,-0.0070441174,-0.0015872867,-0.12210442,0.16882947,9.691685,47.3977499,8.5456105,488.107,0.0,0.0,0.0,-0.03999999910593033,47.39775778517795,8.545609205106636,479.404296875,1,1
1731242126916887,0.0016976298,-0.0059788506,0.0010758723,-0.11851313,0.16882949,9.671332,47.3977499,8.5456105,488.113,0.0,-0.019999999552965164,0.0,0.07000000029802322,47.39775436370425,8.545609353698264,487.42022705078125,1,1
1731242127313327,0.0022302659,-0.004647269,0.0018748243,-0.12808992,0.17960338,9.724008,47.3977499,8.5456104,488.1,0.0,0.0,0.0,0.009999999776482582,47.39775210590231,8.54560951195777,488.74774169921875,1,1
1731242127713437,0.0024965808,-0.006245166,-0.0013209726,-0.14245513,0.13052225,9.704852,47.3977499,8.5456104,488.1,0.0,0.0,0.019999999552965164,0.0,47.397750962463434,8.54560962332882,489.6221618652344,1,1
1731242128114276,0.0038281595,-0.004380953,0.00027692658,-0.14245512,0.14967586,9.71802,47.397749999999995,8.5456104,488.09700000000004,0.0,-0.009999999776482582,-0.009999999776482582,-0.009999999776482582,47.397750524405794,8.545609840434878,489.86627197265625,1,1
1731242128514506,0.0011650025,-0.0057125348,0.00027692926,-0.099359505,0.1640411,9.703654,47.397749999999995,8.5456105,488.10900000000004,0.0,0.0,0.009999999776482582,0.05999999865889549,47.39775033963905,8.545609922237603,489.8340759277344,1,1
1731242128923285,0.0024965806,-0.0043809544,0.0005432392,-0.14844064,0.12932514,9.683304,47.3977499,8.5456104,488.103,0.0,0.0,-0.009999999776482582,0.019999999552965164,47.39775034287235,8.545609999327176,489.75201416015625,1,1
1731242129323368,0.0016976334,-0.005712534,-0.000788338,-0.12928702,0.16763237,9.689289,47.3977499,8.5456104,488.10200000000003,0.0,0.0,0.009999999776482582,0.019999999552965164,47.39775032178665,8.545610033557619,489.6631774902344,1,1
