timestamp,gyro_rad[0],gyro_rad[1],gyro_rad[2],accelerometer_m_s2[0],accelerometer_m_s2[1],accelerometer_m_s2[2],latitude_deg,longitude_deg,altitude_msl_m,vel_m_s,vel_n_m_s,vel_e_m_s,vel_d_m_s,lat,lon,alt,motor_failure_flag,failed_motor
1731241244351106,0.0011649999,-0.0049135857,-0.0031851833,-0.14125802,0.17720953,-9.914433,47.3977508,8.5456074,488.092,0.0,-0.019999999552965164,0.009999999776482582,-0.029999999329447746,47.39775079061378,8.545607311569842,488.142333984375,0,0
1731241244550887,0.0027628962,-0.0046472684,-0.0021199216,-0.14365223,0.16643561,-9.976685,47.3977508,8.5456075,488.091,0.0,0.019999999552965164,0.009999999776482582,0.0,47.39775075441494,8.545607326474137,488.1440124511719,0,0
1731241244951226,0.0038281574,-0.008109379,-0.0015872866,-0.13766672,0.17361823,-9.933588,47.3977508,8.5456074,488.096,0.0,0.0,0.0,0.019999999552965164,47.39775078197726,8.545607392615057,488.1465759277344,0,0
1731241245347468,0.18838526,0.0009452865,0.00027697548,-0.15562324,0.15446462,-10.302296,47.3977508,8.5456074,488.09700000000004,0.0,0.009999999776482582,-0.019999999552965164,0.009999999776482582,47.39775081777115,8.545607439554669,488.14581298828125,0,0
1731241245747956,-0.1903163,-0.13727266,-0.0002557622,-0.104147896,0.116157375,-10.850567,47.397750699999996,8.5456074,488.141,0.09999999403953552,-0.07999999821186066,-0.029999999329447746,-0.12999999523162842,47.39775062037779,8.545607201945895,488.1920166015625,0,0
1731241246152114,-0.03585294,-0.017164128,-0.005848326,-0.12090732,0.07785014,-9.891689,47.3977499,8.5456068,488.269,0.26999998092651367,-0.23999999463558197,-0.12999999523162842,-0.4899999797344208,47.39775010351019,8.545606650328784,488.3451232910156,0,0
1731241246552245,-0.037717152,-0.022490464,-0.006381001,-0.081402995,0.09700379,-10.167022,47.3977491,8.545606099999999,488.479,0.2199999988079071,-0.1899999976158142,-0.09999999403953552,-0.5600000023841858,47.39774946191839,8.545606182162228,488.545166015625,0,0
1731241246952593,-0.012150808,-0.008109378,-0.004250443,-0.13527253,0.12932548,-10.050905,47.3977486,8.5456056,488.72700000000003,0.11999999731779099,-0.11999999731779099,-0.04999999701976776,-0.6899999976158142,47.39774896539064,8.545605864914046,488.7911376953125,0,0
1731241247353094,-0.0006992109,-0.0041146404,-0.0034514999,-0.118513145,0.17840666,-9.970699,47.3977484,8.5456054,489.002,0.009999999776482582,0.0,-0.009999999776482582,-0.6699999570846558,47.39774867475663,8.54560574679018,489.0583190917969,0,0
1731241247751999,0.020606067,-0.0075767715,-0.0039841305,-0.15322904,0.21671385,-9.860564,47.3977485,8.5456054,489.28000000000003,0.07999999821186066,0.03999999910593033,0.009999999776482582,-0.699999988079071,47.39774874743004,8.545605804721239,489.3251647949219,0,0
1731241248151592,0.012083959,-0.008908328,-0.002386233,-0.12210442,0.22988194,-9.803103,47.397749,8.5456056,489.55,0.14000000059604645,0.11999999731779099,0.03999999910593033,-0.6699999570846558,47.39774896954535,8.545605908224454,489.5871887207031,0,0
1731241248551752,0.021405026,0.00014642449,-0.0018535932,-0.13886383,0.23945877,-9.726489,47.397749499999996,8.545605799999999,489.807,0.17000000178813934,0.17999999225139618,0.04999999701976776,-0.6200000047683716,47.39774936471147,8.545606077848207,489.8352966308594,0,0
1731241248949946,0.023535555,-0.010772546,-0.0023862247,-0.14245515,0.20713702,-8.655084,47.3977502,8.5456062,490.022,0.17999999225139618,0.17999999225139618,0.03999999910593033,-0.4699999988079071,47.39774993815697,8.545606331753223,490.0349426269531,0,0
1731241249349760,0.023269242,-0.011837797,-0.002119916,-0.15322904,0.22030514,-10.074845,47.3977508,8.5456065,490.129,0.14999999105930328,0.1599999964237213,0.07000000029802322,-0.1599999964237213,47.397750520893496,8.545606507650964,490.12164306640625,0,0
1731241249750118,0.01554607,0.0073369546,0.002141142,-0.12330152,0.21192545,-9.927602,47.397751199999995,8.5456069,490.197,0.10999999940395355,0.07999999821186066,0.04999999701976776,-0.17000000178813934,47.39775102468528,8.545606797812844,490.2029724121094,0,0
1731241250153266,-0.004960268,-0.0067778025,-0.00025570818,-0.1268928,0.14608489,-9.880916,47.3977514,8.5456071,490.248,0.05999999865889549,0.029999999329447746,0.05999999865889549,-0.17000000178813934,47.3977513137471,8.545607070469874,490.2767639160156,0,0
1731241250550206,-0.00762343,0.0009453759,0.0005432375,-0.1388638,0.16164719,-9.963515,47.3977514,8.5456074,490.315,0.04999999701976776,-0.009999999776482582,0.07000000029802322,-0.1599999964237213,47.39775137264941,8.545607328538093,490.33502197265625,0,0
1731241250952254,-0.008156063,0.0020106395,0.0026737712,-0.0945711,0.1317197,-9.922814,47.397751199999995,8.545607799999999,490.362,0.05999999865889549,-0.04999999701976776,0.029999999329447746,-0.14000000059604645,47.39775130402788,8.545607639719032,490.38763427734375,0,0
1731241251351360,-0.007623429,-0.009174645,-0.0013209644,-0.0849943,0.13890229,-9.850987,47.397751,8.5456079,490.408,0.07000000029802322,-0.07000000029802322,0.009999999776482582,-0.09999999403953552,47.39775113442558,8.545607809863375,490.43389892578125,0,0
1731241251746618,-0.014547656,-0.01157148,-0.0026525548,-0.11252761,0.16643561,-9.9060545,47.397750699999996,8.5456079,490.455,0.07000000029802322,-0.07000000029802322,-0.009999999776482582,-0.07999999821186066,47.39775089217226,8.545607841101988,490.4687194824219,0,0
1731241252148914,-0.005492897,-0.01237044,-0.00052201125,-0.09696532,0.1508733,-9.940771,47.3977505,8.545607799999999,490.487,0.05999999865889549,-0.07000000029802322,-0.029999999329447746,-0.12999999523162842,47.39775064789147,8.545607781636452,490.49774169921875,0,0
1731241252551847,-3.5238018,0.58631104,-1.0548415,-0.007182728,0.14847894,-1.0092007,47.3977504,8.5456076,490.32800000000003,0.07000000029802322,0.019999999552965164,-0.07000000029802322,1.659999966621399,47.397750681307855,8.545607310482966,490.06231689453125,1,2
1731241252950235,-13.492178,-7.823605,-0.33659452,-30.911537,43.165096,15.205529,47.3977509,8.5456067,488.925,0.3999999761581421,0.32999998331069946,-0.22999998927116394,5.349999904632568,47.39775115067756,8.545606276384309,488.31109619140625,1,2
1731241253349327,0.0016976339,-0.0035820073,-0.0031851816,-0.07900877,0.17361791,9.655772,47.3977516,8.5456056,488.1,0.0,-0.009999999776482582,0.0,0.0,47.39775581089619,8.545602574736215,485.8810729980469,1,2
1731241253751101,0.00036605468,-0.0038483227,-0.002386237,-0.08020587,0.17242078,9.6438,47.3977516,8.5456057,488.103,0.0,0.019999999552965164,0.0,0.0,47.397760513895534,8.545598275882947,483.5364074707031,1,2
1731241254151054,0.006757639,-0.00597885,-0.0015872872,-0.09816239,0.17002657,9.674923,47.3977516,8.5456056,488.098,0.0,0.019999999552965164,0.0,-0.029999999329447746,47.39776090232628,8.545595917930111,481.81536865234375,1,2
1731241254550935,0.00409448,-0.0073104305,-0.0015872867,-0.08619136,0.15326715,9.678514,47.3977516,8.5456056,488.112,0.0,-0.009999999776482582,0.0,-0.009999999776482582,47.39775887940888,8.545596196900881,480.74761962890625,1,2
1731241254947592,0.0030292105,-0.0065114805,0.00027692842,-0.090979785,0.1329164,9.670136,47.3977516,8.5456056,488.1,0.0,0.009999999776482582,-0.009999999776482582,-0.029999999329447746,47.39775593843535,8.545598813562153,487.3924865722656,1,2
1731241255351867,0.005426056,-0.008109379,0.00027692676,-0.0993595,0.17960338,9.666545,47.3977516,8.5456057,488.106,0.0,0.0,0.0,-0.029999999329447746,47.397754075983826,8.54560083022922,489.20318603515625,1,2
1731241255751045,0.0035618478,-0.0070441146,-0.0045167627,-0.08260009,0.16763237,9.659362,47.3977516,8.5456057,488.112,0.0,-0.009999999776482582,0.0,0.0,47.397752897430664,8.545602438061767,489.8777770996094,1,2
1731241256150827,0.0054260585,-0.0035820047,-0.0021199184,-0.1197102,0.17242077,9.662953,47.3977516,8.5456057,488.1,0.0,0.0,0.0,-0.009999999776482582,47.39775246366464,8.54560310550522,489.9379577636719,1,2
1731241256549031,0.0035618444,-0.007044117,-0.0039841286,-0.11492183,0.16523819,9.6461935,47.3977516,8.5456056,488.09700000000004,0.0,0.0,0.0,0.009999999776482582,47.397752341790905,8.545603556444595,489.88214111328125,1,2
1731241256952179,0.001165001,-0.004114637,0.0005432439,-0.08738852,0.13770486,9.686895,47.3977516,8.5456056,488.096,0.0,0.0,0.019999999552965164,0.04999999701976776,47.39775222052048,8.545603673316005,489.7933349609375,1,2
