timestamp,gyro_rad[0],gyro_rad[1],gyro_rad[2],accelerometer_m_s2[0],accelerometer_m_s2[1],accelerometer_m_s2[2],latitude_deg,longitude_deg,altitude_msl_m,vel_m_s,vel_n_m_s,vel_e_m_s,vel_d_m_s,lat,lon,alt,motor_failure_flag,failed_motor
1731241269646760,0.001431317,-0.0046472703,-0.0013209705,-0.1843537,0.17720956,-9.939574,47.3977508,8.5456074,488.092,0.0,-0.019999999552965164,0.009999999776482582,-0.029999999329447746,47.39775080943481,8.545607329404737,488.1358642578125,0,0
1731241270046042,0.0064913193,-0.0041146385,-0.0015872869,-0.12210441,0.1532675,-9.9778805,47.3977508,8.5456075,488.091,0.0,0.019999999552965164,0.009999999776482582,0.0,47.39775075644566,8.545607339432408,488.1408386230469,0,0
1731241270446055,0.00063236756,-0.005712534,-0.00052202283,-0.13168122,0.13770519,-9.931193,47.3977508,8.5456074,488.096,0.0,0.0,0.0,0.019999999552965164,47.39775079706314,8.545607414079269,488.1423645019531,0,0
1731241270846387,0.0016976327,-0.0062451675,0.0013421876,-0.14365222,0.16523851,-9.968304,47.3977508,8.5456074,488.09700000000004,0.0,0.009999999776482582,-0.019999999552965164,0.009999999776482582,47.39775083576282,8.545607452717736,488.1371765136719,0,0
1731241271246405,0.0022302654,-0.0051799016,-0.0021199207,-0.14963774,0.19277184,-9.946755,47.3977508,8.5456074,488.113,0.0,0.009999999776482582,0.0,0.019999999552965164,47.39775088269185,8.545607370868465,488.1320495605469,0,0
1731241271646463,0.109555654,-0.0030494046,-0.0026525266,-0.16400295,0.2394588,-10.305887,47.397750699999996,8.5456074,488.11,0.0,0.0,0.0,0.0,47.39775092954673,8.54560731882157,488.1265563964844,0,0
1731241272046849,-0.10589402,0.023582304,0.0082669845,-0.07541748,0.08622988,-10.708114,47.397750699999996,8.5456074,488.115,0.029999999329447746,-0.029999999329447746,0.0,-0.08999999612569809,47.39775072952725,8.54560721674589,488.1656188964844,0,0
1731241272447716,-0.075800344,-0.061106306,-0.0079788985,-0.0921769,0.106580585,-10.388486,47.3977502,8.545607,488.20300000000003,0.28999999165534973,-0.25999999046325684,-0.14000000059604645,-0.4099999964237213,47.39775010033383,8.545606593920288,488.30487060546875,0,0
1731241272848066,-0.03239083,-0.024887308,-0.007179875,-0.1005566,0.07665304,-10.186174,47.3977493,8.5456062,488.409,0.26999998092651367,-0.2199999988079071,-0.14000000059604645,-0.5199999809265137,47.3977493311243,8.545606006955213,488.5099182128906,0,0
1731241273248445,-0.006025531,-0.008908326,-0.0061146654,-0.11611891,0.1341139,-10.111956,47.3977486,8.545605499999999,488.647,0.1599999964237213,-0.17000000178813934,-0.09999999403953552,-0.6499999761581421,47.39774879678542,8.54560560441759,488.7411804199219,0,0
1731241273648979,-0.006025534,-0.01023991,-0.0066472865,-0.118513115,0.15925299,-9.955136,47.397748299999996,8.545605199999999,488.914,0.03999999910593033,-0.029999999329447746,-0.029999999329447746,-0.699999988079071,47.397748442821666,8.545605343291488,489.005126953125,0,0
1731241274049309,0.02513345,0.0065380037,-0.0045167753,-0.13407542,0.20593993,-9.891688,47.3977485,8.545605,489.196,0.07999999821186066,0.08999999612569809,0.009999999776482582,-0.7099999785423279,47.39774850390072,8.54560536135124,489.2782897949219,0,0
1731241274449416,0.029927142,-0.0025167412,-0.004250449,-0.16520002,0.25382397,-9.843804,47.397748899999996,8.545605199999999,489.463,0.14999999105930328,0.1599999964237213,0.019999999552965164,-0.6699999570846558,47.39774891126038,8.545605519873316,489.5435791015625,0,0
1731241274849648,0.0227366,-0.009973606,0.0026737785,-0.15442614,0.24065587,-9.828242,47.397749499999996,8.545605499999999,489.726,0.17999999225139618,0.19999998807907104,0.07000000029802322,-0.6399999856948853,47.39774949727943,8.545605675637416,489.7914123535156,0,0
1731241275246409,0.025666084,0.0054727304,-0.0034515082,-0.1316812,0.23706451,-8.854999,47.397750099999996,8.5456059,489.966,0.17000000178813934,0.14000000059604645,0.05999999865889549,-0.5399999618530273,47.397750168595785,8.545605999299351,490.0107116699219,0,0
1731241275646455,0.0024965794,-0.005446216,1.0613257e-05,-0.15442614,0.20354573,-9.971894,47.397750599999995,8.5456063,490.103,0.14000000059604645,0.10999999940395355,0.07999999821186066,-0.19999998807907104,47.39775059546909,8.545606314074751,490.1046142578125,0,0
1731241276046491,0.0067576393,0.0049401107,-0.00025570628,-0.123301536,0.19516602,-9.9778805,47.3977509,8.5456067,490.169,0.09999999403953552,0.07000000029802322,0.09999999403953552,-0.1899999976158142,47.397750885415874,8.545606680427804,490.184814453125,0,0
1731241276447124,0.0014313229,0.0057390607,0.0029400892,-0.16160877,0.1448878,-9.918026,47.3977511,8.5456072,490.23900000000003,0.07000000029802322,0.019999999552965164,0.05999999865889549,-0.19999998807907104,47.397751062081724,8.545607145297426,490.2630615234375,0,0
1731241276847374,-0.004161329,-0.0083756875,0.0013421905,-0.14365222,0.14728197,-9.901266,47.3977511,8.5456075,490.308,0.03999999910593033,-0.019999999552965164,0.04999999701976776,-0.14999999105930328,47.39775108668291,8.545607426938655,490.32830810546875,0,0
1731241277248212,-0.010552906,-0.0054462226,-0.0018536145,-0.124498636,0.1436907,-9.925209,47.397751,8.5456077,490.375,0.03999999910593033,-0.03999999910593033,0.009999999776482582,-0.11999999731779099,47.397750994510936,8.545607615683538,490.3831787109375,0,0
1731241277648791,-0.007889757,-0.012370432,-0.002386234,-0.11492183,0.14009942,-9.933588,47.3977508,8.5456077,490.426,0.04999999701976776,-0.05999999865889549,-0.009999999776482582,-0.17000000178813934,47.397750847439305,8.545607645116684,490.4282531738281,0,0
1731241278049240,-0.0009655291,-0.008109379,-0.0021199172,-0.07661459,0.1484791,-9.938376,47.397750599999995,8.5456076,490.469,0.04999999701976776,-0.04999999701976776,-0.009999999776482582,-0.09999999403953552,47.39775067048194,8.5456075903761,490.4723205566406,0,0
1731241278449330,-0.00069921516,-0.0065114815,0.00054323935,-0.1077392,0.147282,-9.898872,47.3977504,8.5456075,490.50100000000003,0.03999999910593033,-0.029999999329447746,-0.019999999552965164,-0.08999999612569809,47.39775051459808,8.545607523677884,490.5058288574219,0,0
1731241278845820,0.0027628958,-0.012370436,0.00080955896,-0.08499429,0.1544646,-9.910844,47.3977504,8.5456074,490.535,0.029999999329447746,-0.029999999329447746,-0.029999999329447746,-0.07000000029802322,47.39775042870253,8.5456074276742,490.53271484375,0,0
1731241279246330,0.004360798,-0.0065114815,-0.0018536038,-0.113724716,0.17002693,-9.947955,47.3977503,8.5456073,490.56600000000003,0.019999999552965164,0.009999999776482582,-0.019999999552965164,-0.04999999701976776,47.397750361037055,8.545607308155361,490.5539855957031,0,0
1731241279646338,0.0051597413,-0.005712533,0.0010758766,-0.0921769,0.1556617,-9.946755,47.3977503,8.5456071,490.584,0.009999999776482582,0.029999999329447746,-0.019999999552965164,-0.08999999612569809,47.39775039215544,8.545607227491,490.5718078613281,0,0
1731241280046600,0.004893425,-0.011038856,-0.0010546605,-0.08260009,0.1628443,-9.891689,47.3977504,8.5456071,490.62,0.009999999776482582,0.0,-0.009999999776482582,-0.05999999865889549,47.39775049094871,8.545607141973946,490.5908203125,0,0
1731241280447163,1.0371349,0.6792516,0.18030769,-0.35314485,0.5351426,-7.0856843,47.3977504,8.545607,490.625,0.0,0.009999999776482582,-0.009999999776482582,-0.05999999865889549,47.397750507957085,8.545607085458295,490.6032409667969,0,0
1731241280847532,3.828134,0.48271355,1.1451466,-0.04070155,0.07066737,-0.9577254,47.3977503,8.545607,490.483,0.07000000029802322,-0.05999999865889549,-0.029999999329447746,1.5299999713897705,47.397750053572665,8.54560653917274,489.971923828125,1,4
1731241281248302,2.7721972,-1.6153291,-0.11069322,45.786716,-59.499466,76.43364,47.3977496,8.5456064,489.132,0.38999998569488525,-0.3499999940395355,-0.19999998807907104,5.230000019073486,47.39774944697928,8.545605217303168,488.0376281738281,1,4
1731241281648612,0.0016976334,-0.004380954,-0.00025570873,-0.107739195,0.17960338,9.652178,47.3977486,8.545604599999999,488.1,0.0,0.0,0.0,-0.009999999776482582,47.397748393649216,8.545601696503022,485.7249755859375,1,4
1731241282049326,0.004893424,-0.005978851,-0.0031851826,-0.1017537,0.19516568,9.666545,47.3977486,8.5456045,488.096,0.0,0.0,0.0,0.009999999776482582,47.397747729314226,8.545598572540817,483.55584716796875,1,4
1731241282445928,0.004627108,-0.006245165,-0.0039841305,-0.1304841,0.17960335,9.697667,47.3977486,8.5456045,488.096,0.0,0.0,0.019999999552965164,0.04999999701976776,47.39774742794464,8.545596111226638,481.7129211425781,1,4
1731241282846063,0.0038281647,-0.0067777983,-0.0013209716,-0.09576818,0.14488745,9.648587,47.3977486,8.5456045,488.108,0.0,0.019999999552965164,0.009999999776482582,0.0,47.39774774664234,8.545597186195202,480.6154479980469,1,4
1731241283246394,0.0030292135,-0.0019841082,-0.0015872861,-0.09696532,0.1819976,9.668939,47.3977486,8.5456045,488.104,0.0,0.009999999776482582,0.009999999776482582,0.0,47.39774825055283,8.545599749901367,488.0008544921875,1,4
1731241283646982,0.003828163,-0.0054462184,-0.0013209691,-0.105345,0.19516568,9.649786,47.3977486,8.5456045,488.105,0.0,0.009999999776482582,0.019999999552965164,-0.009999999776482582,47.397748559520906,8.545601509474881,489.3959045410156,1,4
1731241284047123,0.005958691,-0.005712534,-0.0026525494,-0.117315985,0.16044976,9.653377,47.3977486,8.5456045,488.104,0.0,-0.009999999776482582,-0.009999999776482582,-0.04999999701976776,47.39774873386231,8.545602613429237,489.79571533203125,1,4
1731241284448450,0.004094473,-0.007843063,1.0611352e-05,-0.108936295,0.17720918,9.678515,47.3977486,8.5456045,488.101,0.0,0.0,-0.009999999776482582,0.0,47.39774868846747,8.545603045060597,489.8695983886719,1,4
1731241284848301,0.0016976384,-0.006777799,-0.003717818,-0.11252761,0.17002656,9.659361,47.3977486,8.5456045,488.095,0.0,0.0,-0.009999999776482582,0.029999999329447746,47.39774862812613,8.545603202166982,489.8538818359375,1,4
1731241285248426,0.0040944787,-0.0038483215,-0.0013209672,-0.11133052,0.17960341,9.650984,47.3977486,8.5456045,488.103,0.0,0.0,0.009999999776482582,0.009999999776482582,47.39774860352068,8.545603296246458,489.79010009765625,1,4
