timestamp,gyro_rad[0],gyro_rad[1],gyro_rad[2],accelerometer_m_s2[0],accelerometer_m_s2[1],accelerometer_m_s2[2],latitude_deg,longitude_deg,altitude_msl_m,vel_m_s,vel_n_m_s,vel_e_m_s,vel_d_m_s,lat,lon,alt,motor_failure_flag,failed_motor
1731241546774124,0.0062250057,-0.0075767473,-0.0018535974,-0.14604644,0.17601244,-9.963515,47.3977508,8.5456074,488.092,0.0,-0.019999999552965164,0.009999999776482582,-0.029999999329447746,47.39775079238757,8.545607412828023,488.1444396972656,0,0
1731241547074027,0.0043607936,-0.0067777988,-0.0031851828,-0.14724356,0.17601244,-9.949151,47.3977508,8.5456075,488.091,0.0,0.019999999552965164,0.009999999776482582,0.0,47.39775073984143,8.545607448562478,488.1461181640625,0,0
1731241547473402,0.003828162,-0.008642011,-0.003185182,-0.13048412,0.18678634,-9.94556,47.3977508,8.5456074,488.098,0.0,0.0,0.0,-0.019999999552965164,47.39775076528437,8.545607514919997,488.14654541015625,0,0
1731241547874432,0.111952536,0.03237061,-0.00078822067,-0.19752179,0.18678634,-10.359756,47.3977508,8.5456074,488.09700000000004,0.0,0.0,0.0,-0.009999999776482582,47.39775080659533,8.545607544660484,488.1492919921875,0,0
1731241548274110,-0.14743942,-0.14046846,1.0514508e-05,-0.086191386,0.116157405,-10.827824,47.397750699999996,8.5456073,488.14,0.07000000029802322,-0.08999999612569809,-0.04999999701976776,-0.1599999964237213,47.39775066584757,8.54560732052034,488.1969909667969,0,0
1731241548671191,-0.04970138,-0.025686238,-0.0018535887,-0.113724686,0.10418637,-9.927602,47.397750099999996,8.5456066,488.259,0.2800000011920929,-0.20999999344348907,-0.17999999225139618,-0.4699999988079071,47.397750109825644,8.54560656795475,488.3559265136719,0,0
1731241549071486,-0.022270804,-0.03500731,-0.0055820327,-0.068234876,0.10777766,-10.176598,47.397749399999995,8.5456057,488.466,0.2199999988079071,-0.1599999964237213,-0.14000000059604645,-0.550000011920929,47.397749520736426,8.545605853339596,488.5567626953125,0,0
1731241549471581,-0.006558171,-0.007843056,-0.002918863,-0.11492179,0.16404139,-10.037735,47.397749,8.5456051,488.713,0.10999999940395355,-0.04999999701976776,-0.08999999612569809,-0.6100000143051147,47.397749133886784,8.54560537570629,488.7889404296875,0,0
1731241549872535,0.018209234,-0.009973588,-0.0015872829,-0.110133424,0.17601243,-10.014993,47.397748899999996,8.5456048,488.98,0.019999999552965164,0.009999999776482582,-0.03999999910593033,-0.6800000071525574,47.39774906382762,8.545605124334537,489.0433349609375,0,0
1731241550273097,0.0075565916,-0.011837802,-0.006380978,-0.15682037,0.20115155,-9.924012,47.397749,8.5456048,489.26800000000003,0.07999999821186066,0.07999999821186066,0.029999999329447746,-0.7299999594688416,47.39774921343499,8.54560506451856,489.3094177246094,0,0
1731241550673990,0.018209234,-0.006777799,-0.0018536067,-0.13407543,0.21551676,-9.782752,47.397749399999995,8.545605199999999,489.543,0.12999999523162842,0.08999999612569809,0.07999999821186066,-0.6899999976158142,47.39774949736894,8.545605241515348,489.5743103027344,0,0
1731241551073813,0.0075565893,0.013728545,-0.0005220202,-0.15203197,0.22748777,-9.764797,47.3977498,8.5456056,489.806,0.14999999105930328,0.12999999523162842,0.10999999940395355,-0.6299999952316284,47.39774984528373,8.545605684805764,489.83197021484375,0,0
1731241551474040,0.014747121,0.0041411594,-0.00052201696,-0.1316812,0.2011515,-8.663464,47.3977502,8.5456063,490.031,0.14999999105930328,0.09999999403953552,0.14000000059604645,-0.5,47.39775022189995,8.545606219347215,490.0423278808594,0,0
1731241551874452,0.0048934305,0.013728542,-0.0007883378,-0.16041164,0.20474285,-10.0652685,47.397750599999995,8.5456068,490.152,0.11999999731779099,0.05999999865889549,0.07999999821186066,-0.1899999976158142,47.39775054115473,8.545606853568975,490.1351013183594,0,0
1731241552270931,-0.0012318447,-0.009174643,1.0609583e-05,-0.11971022,0.18439212,-9.884508,47.3977508,8.5456073,490.225,0.07999999821186066,0.03999999910593033,0.04999999701976776,-0.1899999976158142,47.397750737874446,8.545607285156654,490.2220458984375,0,0
1731241552673143,9.972975e-05,-0.010239905,-0.0013209701,-0.12928702,0.1556617,-9.904858,47.3977509,8.5456074,490.28000000000003,0.029999999329447746,0.019999999552965164,0.029999999329447746,-0.17999999225139618,47.39775084412841,8.545607476171105,490.2991027832031,0,0
1731241553072847,-0.0014981623,-0.008375694,-0.0013209652,-0.12928702,0.1580559,-9.894084,47.3977509,8.5456075,490.34700000000004,0.0,0.009999999776482582,0.019999999552965164,-0.1599999964237213,47.39775089590351,8.545607568532674,490.3602294921875,0,0
1731241553473009,-0.0020307954,-0.006245164,0.0005432418,-0.088585585,0.1317197,-9.919224,47.3977509,8.5456076,490.395,0.009999999776482582,0.0,-0.009999999776482582,-0.14000000059604645,47.39775091616288,8.54560762053382,490.4131774902344,0,0
1731241553873368,-0.00043289035,-0.012370437,-0.00211993,-0.070629075,0.17002691,-9.872535,47.3977509,8.5456074,490.443,0.019999999552965164,-0.009999999776482582,-0.019999999552965164,-0.08999999612569809,47.39775091543276,8.54560758511057,490.45819091796875,0,0
1731241554273432,-0.0020307894,-0.013169386,-0.0018536032,-0.1017537,0.1532675,-9.959924,47.3977508,8.5456073,490.48900000000003,0.029999999329447746,-0.029999999329447746,-0.029999999329447746,-0.07999999821186066,47.397750883250346,8.545607460560278,490.4936218261719,0,0
1731241554673370,-0.0030960615,-0.013702015,-0.00052202767,-0.06105226,0.15805589,-9.931192,47.397750699999996,8.5456072,490.522,0.029999999329447746,-0.03999999910593033,-0.029999999329447746,-0.12999999523162842,47.39775079664608,8.545607315242936,490.5221862792969,0,0
1731241555074157,-0.0014981609,-0.0102399085,-0.0015872748,-0.0957682,0.17601241,-9.913237,47.397750599999995,8.5456071,490.551,0.019999999552965164,-0.029999999329447746,-0.009999999776482582,-0.05999999865889549,47.39775066270933,8.545607169055584,490.552734375,0,0
1731241555470940,0.0032955292,-0.005446216,0.0010758751,-0.117315985,0.14009938,-9.935981,47.3977505,8.5456069,490.57,0.009999999776482582,0.0,0.0,-0.05999999865889549,47.39775057688732,8.545607132767994,490.5735778808594,0,0
1731241555871608,3.096563,-1.0954796,-0.80397004,-0.15801743,0.26340055,-0.9206152,47.3977505,8.5456071,490.56,0.03999999910593033,-0.019999999552965164,0.019999999552965164,0.5799999833106995,47.39775033662357,8.545607240291522,490.38580322265625,1,1
1731241556271748,5.576217,-1.220368,-1.3449323,0.17238237,-0.19748321,-0.2873489,47.397749999999995,8.5456075,489.629,0.29999998211860657,-0.23999999463558197,0.14000000059604645,4.170000076293945,47.39774966310731,8.545607535834542,488.98114013671875,1,1
1731241556672608,0.0064913225,-0.0049135843,-0.0013209679,-0.11013337,0.15925263,9.695273,47.397749499999996,8.545609299999999,488.098,0.0,0.019999999552965164,0.0,-0.029999999329447746,47.39774935182393,8.545606868427955,486.4087219238281,1,1
1731241557073607,0.0040944787,-0.0046472684,1.0612805e-05,-0.0909798,0.15446426,9.66415,47.397749499999996,8.545609299999999,488.112,0.0,-0.009999999776482582,0.0,-0.009999999776482582,47.397749471037436,8.54560483991442,483.60009765625,1,1
1731241557473472,0.0030292112,-0.006511482,0.00027692795,-0.1077392,0.12333965,9.670138,47.397749499999996,8.545609299999999,488.1,0.0,0.009999999776482582,-0.009999999776482582,-0.029999999329447746,47.39774993925662,8.545602445271852,481.23004150390625,1,1
1731241557873757,0.0054260558,-0.00810938,0.000276927,-0.11372471,0.17361788,9.666545,47.397749399999995,8.545609299999999,488.107,0.0,-0.009999999776482582,0.0,0.019999999552965164,47.397750147751644,8.545601999817942,479.7029724121094,1,1
1731241558274244,0.0035618478,-0.007044114,-0.0045167627,-0.1005566,0.15925264,9.659361,47.397749499999996,8.5456094,488.112,0.0,-0.009999999776482582,0.0,0.0,47.397750020840476,8.545603196055819,487.3399353027344,1,1
1731241558674570,0.005426058,-0.0035820047,-0.0021199186,-0.13766672,0.16404106,9.662952,47.397749499999996,8.5456094,488.1,0.0,0.0,0.0,-0.009999999776482582,47.39774984063016,8.54560451943834,488.43310546875,1,1
1731241559071335,0.004893422,-0.0065114824,-0.002119916,-0.11731602,0.16284396,9.641405,47.397749499999996,8.545609299999999,488.096,0.0,0.0,0.0,0.009999999776482582,47.39774964185825,8.545605780473393,489.5200500488281,1,1
1731241559472321,0.0011650011,-0.004114636,0.0005432437,-0.10414789,0.1293251,9.6868925,47.397749499999996,8.545609299999999,488.096,0.0,0.0,0.019999999552965164,0.04999999701976776,47.39774958436006,8.54560638959966,489.7090759277344,1,1
1731241559872657,0.0022302652,-0.0030493725,-0.0021199204,-0.084994294,0.15207006,9.666546,47.397749399999995,8.545609299999999,488.107,0.0,0.0,0.0,0.009999999776482582,47.397749574911074,8.54560686140528,489.7183837890625,1,1
1731241560273424,9.973579e-05,-0.0054462166,-0.0018536025,-0.08858559,0.15446424,9.66774,47.397749399999995,8.545609299999999,488.104,0.0,0.009999999776482582,0.009999999776482582,0.0,47.39774950650626,8.545607360316438,489.64923095703125,1,1
1731241560673411,0.0035618464,-0.00597885,-0.0021199188,-0.11133049,0.14847875,9.67133,47.397749399999995,8.545609299999999,488.105,0.0,0.009999999776482582,0.019999999552965164,-0.009999999776482582,47.39774951433951,8.545607619398632,489.580078125,1,1
