timestamp,gyro_rad[0],gyro_rad[1],gyro_rad[2],accelerometer_m_s2[0],accelerometer_m_s2[1],accelerometer_m_s2[2],latitude_deg,longitude_deg,altitude_msl_m,vel_m_s,vel_n_m_s,vel_e_m_s,vel_d_m_s,lat,lon,alt,motor_failure_flag,failed_motor
1731240146332579,0.0011649958,-0.0038483194,0.0008095535,-0.13527252,0.15925266,9.724005,47.397749,8.5456048,488.103,0.0,0.0,0.0,0.019999999552965164,47.39774891005602,8.54560514527838,489.6646728515625,0,0
1731240160482269,0.0024965825,-0.002783057,-0.0023862363,-0.16998847,0.17601243,-9.989852,47.3977508,8.5456075,488.091,0.0,0.019999999552965164,0.009999999776482582,0.0,47.3977507397355,8.545607268219337,488.13323974609375,0,0
1731240160882072,0.004094478,-0.006245166,0.0010758742,-0.13646963,0.17960376,-9.947953,47.3977508,8.5456074,488.096,0.0,0.0,0.0,0.019999999552965164,47.397750783734445,8.54560731390337,488.1336364746094,0,0
1731240161282806,0.034720834,-0.0075767515,0.00027692306,-0.17477688,0.21072836,-10.126321,47.3977508,8.5456074,488.09700000000004,0.0,0.009999999776482582,-0.019999999552965164,0.009999999776482582,47.397750837003755,8.54560737312952,488.1294250488281,0,0
1731240161682823,-0.0150803095,0.07657912,0.004271963,-0.12090732,0.088624075,-10.657833,47.3977508,8.5456074,488.129,0.03999999910593033,-0.019999999552965164,0.0,-0.07999999821186066,47.397750769443995,8.545607271100522,488.1561279296875,0,0
1731240162083531,-0.059555084,-0.057644147,-0.0026525047,-0.07062907,0.10658057,-10.52735,47.397750099999996,8.545607,488.228,0.25999999046325684,-0.1899999976158142,-0.11999999731779099,-0.41999998688697815,47.39775033976983,8.545606748997388,488.2810363769531,0,0
1731240162483410,-0.03505399,-0.022756757,-0.0034515124,-0.08020587,0.11974869,-10.199344,47.397749399999995,8.5456062,488.43,0.23999999463558197,-0.19999998807907104,-0.11999999731779099,-0.550000011920929,47.39774980317022,8.545606261164714,488.4779052734375,0,0
1731240162883632,-0.024667665,-0.016365184,-0.007446219,-0.0861914,0.12812838,-10.135898,47.397748799999995,8.5456057,488.673,0.1599999964237213,-0.14999999105930328,-0.05999999865889549,-0.6800000071525574,47.39774926622946,8.545605884397915,488.70782470703125,0,0
1731240163280427,-0.009753957,-0.0011851552,-0.004250458,-0.122104384,0.17601243,-9.979076,47.3977484,8.5456053,488.949,0.05999999865889549,-0.029999999329447746,-0.029999999329447746,-0.6699999570846558,47.397748872214336,8.545605704836776,488.97259521484375,0,0
1731240163681012,0.019540805,-0.0067778155,-0.0021199202,-0.08260009,0.23107907,-9.991049,47.3977484,8.5456053,489.23,0.03999999910593033,0.0,0.0,-0.7099999785423279,47.39774879719054,8.545605681653464,489.2467346191406,0,0
1731240164083379,-0.00043289593,-0.006245167,-0.0042504445,-0.16759422,0.20833412,-9.847396,47.3977487,8.5456054,489.50800000000004,0.10999999940395355,0.11999999731779099,0.029999999329447746,-0.6299999952316284,47.397748873024824,8.545605720355736,489.51361083984375,0,0
1731240164482910,0.03365557,-0.00091885694,-0.0023862135,-0.15083484,0.22030513,-9.799512,47.3977491,8.545605499999999,489.76800000000003,0.14999999105930328,0.1599999964237213,0.04999999701976776,-0.6299999952316284,47.39774922526803,8.545605886578597,489.764404296875,0,0
1731240164882815,0.023002923,-0.0041146413,-0.0010546529,-0.13886385,0.20234862,-9.098012,47.3977497,8.5456059,489.99600000000004,0.1599999964237213,0.17000000178813934,0.03999999910593033,-0.550000011920929,47.39774975451443,8.545606101178606,489.988525390625,0,0
1731240165283582,0.014747117,-0.010239909,-0.0029188672,-0.17238262,0.22868481,-9.7791605,47.3977503,8.5456062,490.15000000000003,0.14000000059604645,0.14999999105930328,0.07000000029802322,-0.19999998807907104,47.39775027503242,8.545606289926026,490.1048889160156,0,0
1731240165683846,0.012083953,0.007869595,-0.0037178122,-0.15322903,0.23945874,-10.004215,47.397750699999996,8.5456067,490.218,0.10999999940395355,0.07999999821186066,0.04999999701976776,-0.17000000178813934,47.397750735190215,8.54560657399264,490.1842041015625,0,0
1731240166080675,-0.002563426,-0.009707273,-0.0037178197,-0.112527594,0.17720953,-9.904858,47.3977509,8.5456069,490.274,0.07000000029802322,0.03999999910593033,0.05999999865889549,-0.17999999225139618,47.397751006603556,8.545606846189402,490.2664489746094,0,0
1731240166481685,-0.00629185,0.0004127357,-0.003984136,-0.15203194,0.16164722,-9.924012,47.3977509,8.5456072,490.345,0.04999999701976776,0.0,0.04999999701976776,-0.1599999964237213,47.39775108934343,8.5456071172498,490.3311767578125,0,0
1731240166882160,-0.010286594,-0.0046472666,-0.0007883341,-0.14125803,0.17481533,-9.919223,47.3977509,8.5456076,490.392,0.04999999701976776,-0.029999999329447746,0.029999999329447746,-0.14000000059604645,47.397751051255256,8.54560735619845,490.3873291015625,0,0
1731240167283156,-0.0044276407,-0.009707275,-0.0023862196,-0.123301536,0.13650809,-9.93359,47.3977508,8.5456077,490.442,0.03999999910593033,-0.03999999910593033,0.019999999552965164,-0.08999999612569809,47.39775093207049,8.545607509618609,490.43560791015625,0,0
1731240167683298,-0.0057592173,-0.005978848,-0.0031851858,-0.13168122,0.1676327,-9.920418,47.397750599999995,8.545607799999999,490.486,0.03999999910593033,-0.05999999865889549,0.029999999329447746,-0.11999999731779099,47.39775079003505,8.54560760046192,490.47113037109375,0,0
1731240168083628,-0.0052265855,-0.0022504316,0.0002769297,-0.1089363,0.16404143,-9.885704,47.3977505,8.545607799999999,490.519,0.029999999329447746,-0.04999999701976776,-0.009999999776482582,-0.11999999731779099,47.39775060604533,8.545607709032494,490.50469970703125,0,0
1731240168480546,0.0019639512,-0.009174644,-0.0002557057,-0.12330153,0.14967622,-9.903663,47.3977504,8.545607799999999,490.543,0.009999999776482582,-0.009999999776482582,-0.029999999329447746,-0.029999999329447746,47.39775044479063,8.545607734665285,490.53387451171875,0,0
1731240168881418,0.009687123,-0.013702016,-0.0018535841,-0.071826175,0.17122403,-9.98267,47.3977503,8.5456077,490.558,0.019999999552965164,0.019999999552965164,-0.029999999329447746,-0.019999999552965164,47.397750400088086,8.545607618595383,490.5522766113281,0,0
1731240169281625,0.0054260623,-0.016098864,0.0024074477,-0.0969653,0.17720953,-9.947953,47.3977504,8.5456076,490.58,0.019999999552965164,0.029999999329447746,-0.019999999552965164,-0.029999999329447746,47.397750463496095,8.545607461940453,490.5639953613281,0,0
1731240169682038,0.01075238,-0.0038483154,0.00240746,-0.124498636,0.19277184,-9.974289,47.3977505,8.5456076,490.601,0.019999999552965164,0.019999999552965164,-0.009999999776482582,-0.019999999552965164,47.39775056679563,8.545607376166062,490.5755310058594,0,0
1731240170082680,-0.0006992123,-0.003315688,-0.00025570026,-0.10773922,0.18319505,-9.927602,47.3977505,8.5456075,490.61400000000003,0.009999999776482582,0.029999999329447746,-0.009999999776482582,-0.07999999821186066,47.397750647056384,8.545607368729883,490.5861511230469,0,0
1731240170483104,0.009154484,-0.0051799016,-0.0021199165,-0.10414789,0.159253,-9.918025,47.3977505,8.5456074,490.646,0.0,0.0,0.0,-0.04999999701976776,47.39775071295996,8.545607367154505,490.60107421875,0,0
1731240170980372,-0.0014981693,-0.008642003,1.0615296e-05,-0.104147874,0.1784066,-9.933585,47.3977505,8.5456074,490.646,0.0,0.0,0.0,-0.04999999701976776,47.39775071389928,8.545607359973623,490.6169738769531,0,0
1731240171384099,0.0024965787,-0.0054462175,-0.00132097,-0.101753704,0.16045012,-9.913238,47.3977504,8.5456075,490.664,0.009999999776482582,-0.019999999552965164,0.0,0.0,47.39775068131865,8.545607365933328,490.62420654296875,0,0
1731240171780750,-0.0076234248,-0.008642016,-0.0029188697,-0.10654207,0.13890229,-9.95753,47.3977504,8.5456076,490.67900000000003,0.009999999776482582,-0.009999999776482582,0.009999999776482582,-0.04999999701976776,47.397750591132215,8.545607377229832,490.6267395019531,0,0
1731240172182016,0.0022302635,-0.0038483215,0.002673771,-0.11133052,0.15805592,-9.947954,47.3977504,8.5456077,490.675,0.009999999776482582,0.0,0.009999999776482582,-0.029999999329447746,47.397750542566236,8.545607441645458,490.63409423828125,0,0
1731240172581441,0.002762897,-0.0049135853,1.0609076e-05,-0.09097978,0.1616472,-9.920419,47.3977504,8.5456077,490.68,0.019999999552965164,0.0,0.029999999329447746,-0.03999999910593033,47.397750540015664,8.545607502339145,490.63824462890625,0,0
1731240172980929,2.931981,0.8872484,0.93315595,-0.0011972262,0.20354557,-1.035537,47.3977504,8.545607799999999,490.65000000000003,0.019999999552965164,-0.029999999329447746,0.029999999329447746,0.5699999928474426,47.39775026121228,8.54560732676469,490.2931213378906,1,4
1731240173384052,4.0558133,1.3431545,1.5524267,-0.48722023,-0.41535562,-0.73985314,47.397749999999995,8.5456075,489.688,0.26999998092651367,-0.23999999463558197,-0.14000000059604645,4.230000019073486,47.39774950497171,8.545606719578902,488.6471862792969,1,4
1731240173784205,0.001963947,-0.0046472684,-0.0005220208,-0.11971024,0.13531066,9.648587,47.3977486,8.5456051,488.105,0.0,-0.009999999776482582,0.0,0.019999999552965164,47.39774960940237,8.545609439574921,486.131591796875,1,4
1731240174180990,0.0030292135,-0.00251674,-0.0013209729,-0.100556605,0.12693094,9.686895,47.3977486,8.545605,488.105,0.0,0.009999999776482582,0.019999999552965164,-0.009999999776482582,47.397750639732095,8.545612932440418,483.6811828613281,1,4
1731240174581481,0.0011649962,-0.0073104277,-0.00025570404,-0.1113305,0.16044974,9.661754,47.3977486,8.5456051,488.105,0.0,0.0,-0.019999999552965164,0.009999999776482582,47.39775222916048,8.545615881451784,481.47979736328125,1,4
1731240174982264,0.0024965843,-0.0038483215,-0.0021199207,-0.08858557,0.19037728,9.6940775,47.3977486,8.5456051,488.10200000000003,0.0,0.0,0.0,0.009999999776482582,47.397752211357705,8.545614476174222,480.182373046875,1,4
1731240175382681,0.0008986846,-0.004913586,-0.0005220236,-0.1017537,0.17960338,9.686895,47.3977486,8.5456051,488.095,0.0,0.0,0.009999999776482582,0.0,47.39775140096953,8.545611759867192,487.8076477050781,1,4
1731240175782890,0.003828163,-0.003582004,-0.00078833615,-0.1101334,0.15925264,9.697667,47.3977486,8.5456051,488.105,0.0,0.0,0.019999999552965164,-0.009999999776482582,47.39775068140335,8.54560969950295,489.36517333984375,1,4
1731240176180842,0.0016976331,-0.003315688,-0.0015872893,-0.1268928,0.21431927,9.668938,47.3977486,8.5456051,488.107,0.0,0.0,-0.009999999776482582,-0.019999999552965164,47.39775001291879,8.545608432011354,489.9152526855469,1,4
1731240176580422,0.0035618497,-0.0051799016,-0.0037178143,-0.114921786,0.15925264,9.680908,47.3977486,8.5456051,488.09700000000004,0.0,0.0,0.0,0.0,47.39774985632865,8.545607788306082,489.9527587890625,1,4
1731240176980749,0.0016976307,-0.0049135853,1.0609541e-05,-0.06584067,0.17122367,9.698865,47.3977486,8.5456051,488.105,0.0,0.0,0.0,0.0,47.39774955470688,8.545607225336715,489.933837890625,1,4
1731240177381742,0.005159746,-0.0033156867,-0.0037178155,-0.08499429,0.17361788,9.725203,47.3977487,8.5456051,488.106,0.0,0.0,0.0,-0.019999999552965164,47.39774941564777,8.545606937156354,489.8454284667969,1,4
1731240177782295,0.003295534,-0.0057125343,0.00027692798,-0.12808993,0.18558891,9.716824,47.3977487,8.5456051,488.09700000000004,0.0,0.0,-0.009999999776482582,0.009999999776482582,47.39774931305289,8.545606731516424,489.757568359375,1,4
