timestamp,gyro_rad[0],gyro_rad[1],gyro_rad[2],accelerometer_m_s2[0],accelerometer_m_s2[1],accelerometer_m_s2[2],latitude_deg,longitude_deg,altitude_msl_m,vel_m_s,vel_n_m_s,vel_e_m_s,vel_d_m_s,lat,lon,alt,motor_failure_flag,failed_motor
1731239685818990,0.004360794,-0.006777799,-0.003185181,-0.14724353,0.17601243,-9.94915,47.3977508,8.5456075,488.092,0.0,-0.009999999776482582,0.009999999776482582,0.0,47.397750670345005,8.545607284406223,488.1334228515625,0,0
1731239686228128,0.0019639567,-0.007576747,-0.0050493986,-0.12449862,0.18319502,-9.938376,47.3977508,8.5456074,488.096,0.0,0.0,0.0,0.019999999552965164,47.397750664170836,8.545607331059104,488.1321716308594,0,0
1731239686720226,0.1436441,0.12930973,0.000809649,-0.23582897,0.1975602,-10.666213,47.3977508,8.5456074,488.09700000000004,0.0,0.009999999776482582,-0.019999999552965164,0.009999999776482582,47.39775067741074,8.545607376557339,488.1292724609375,0,0
1731239687121253,-0.13545518,-0.1926664,-0.0026526193,-0.08140297,0.10897478,-10.927181,47.397750699999996,8.5456072,488.158,0.12999999523162842,-0.07999999821186066,-0.08999999612569809,-0.2199999988079071,47.39775053113479,8.54560698716351,488.199951171875,0,0
1731239687515334,-0.028928727,-0.010239883,-0.0013209806,-0.08379717,0.10179218,-10.08562,47.397750099999996,8.5456064,488.33,0.22999998927116394,-0.14000000059604645,-0.14000000059604645,-0.550000011920929,47.39775018039035,8.545606317229572,488.3818664550781,0,0
1731239687921371,-0.012949743,-0.019827297,-0.0023862377,-0.12689283,0.13531101,-10.146673,47.397749499999996,8.5456057,488.55,0.1899999976158142,-0.12999999523162842,-0.11999999731779099,-0.6299999952316284,47.39774984897299,8.545605856846393,488.60211181640625,0,0
1731239688319947,-0.010286582,-0.013435712,-0.0042504417,-0.10175369,0.1389023,-10.050904,47.3977491,8.5456051,488.812,0.12999999523162842,-0.10999999940395355,-0.05999999865889549,-0.7099999785423279,47.39774951875214,8.545605481923717,488.8586730957031,0,0
1731239688718292,-0.012683436,-0.00970727,-0.00052200205,-0.1244986,0.16284429,-9.945559,47.397748899999996,8.5456048,489.093,0.04999999701976776,-0.029999999329447746,-0.029999999329447746,-0.6800000071525574,47.39774926464386,8.545605320266917,489.1308288574219,0,0
1731239689119776,0.0062250053,-0.012370435,-0.00078833883,-0.15682034,0.18558921,-9.855776,47.3977487,8.5456047,489.374,0.009999999776482582,-0.019999999552965164,0.0,-0.699999988079071,47.39774915083038,8.545605267126625,489.4045715332031,0,0
1731239689518551,-0.011618177,-0.013968331,0.001075876,-0.14604646,0.18199794,-9.779163,47.397748899999996,8.5456048,489.647,0.05999999865889549,0.07999999821186066,0.029999999329447746,-0.6100000143051147,47.39774913410896,8.54560528274675,489.6654357910156,0,0
1731239689920515,0.023535553,-0.005712541,0.0008095371,-0.17717105,0.22509354,-9.742051,47.3977492,8.545604899999999,489.894,0.10999999940395355,0.08999999612569809,0.03999999910593033,-0.5999999642372131,47.397749347749496,8.545605418281315,489.9063720703125,0,0
1731239690321504,0.0070239524,-0.00917464,-0.002918877,-0.117316015,0.1891805,-9.218919,47.3977496,8.5456053,490.099,0.12999999523162842,0.12999999523162842,0.03999999910593033,-0.35999998450279236,47.39774966964455,8.545605596654022,490.072021484375,0,0
1731239690719351,0.018741863,-0.0070441198,0.0002769254,-0.13646963,0.21072838,-10.163432,47.397750099999996,8.5456056,490.185,0.12999999523162842,0.12999999523162842,0.07000000029802322,-0.17999999225139618,47.39775005604434,8.545605785076765,490.15509033203125,0,0
1731239691121673,0.013415544,0.0028095809,0.00080955634,-0.13766673,0.18439214,-9.858172,47.3977504,8.545606099999999,490.266,0.11999999731779099,0.07999999821186066,0.05999999865889549,-0.1899999976158142,47.39775048018561,8.545606105462145,490.245849609375,0,0
1731239691521543,-0.0033623734,-0.010772539,-0.0007883441,-0.13287832,0.17840663,-9.919223,47.397750699999996,8.5456065,490.32300000000004,0.09999999403953552,0.04999999701976776,0.07999999821186066,-0.14999999105930328,47.39775075238053,8.545606389442941,490.32220458984375,0,0
1731239691921660,-0.006025534,0.0070706415,-0.0007883373,-0.1304841,0.19995442,-9.906054,47.3977508,8.5456069,490.38800000000003,0.07999999821186066,0.029999999329447746,0.09999999403953552,-0.14999999105930328,47.39775087828985,8.545606738669292,490.3797607421875,0,0
1731239692321904,-0.0036286896,0.005206426,0.0005432492,-0.15203194,0.14129652,-9.94915,47.3977508,8.5456074,490.434,0.07000000029802322,0.0,0.05999999865889549,-0.14000000059604645,47.39775093319729,8.54560717951389,490.42999267578125,0,0
1731239692720848,-0.0052265883,-0.004913581,0.0005432427,-0.12330151,0.1640414,-9.891688,47.3977508,8.5456077,490.483,0.04999999701976776,-0.009999999776482582,0.03999999910593033,-0.08999999612569809,47.397750923166605,8.545607516138066,490.4754943847656,0,0
1731239693120540,-0.00629185,-0.013702015,-0.0034514987,-0.1113305,0.17122401,-9.922813,47.397750699999996,8.5456079,490.526,0.029999999329447746,-0.03999999910593033,0.04999999701976776,-0.11999999731779099,47.3977508667048,8.545607687615773,490.5108947753906,0,0
1731239693521430,-0.0076234313,0.00014641637,1.0612074e-05,-0.10893632,0.1616472,-9.909648,47.397750599999995,8.545608,490.558,0.019999999552965164,-0.03999999910593033,0.0,-0.11999999731779099,47.39775073760854,8.545607859387234,490.5431823730469,0,0
1731239693921934,-0.0014981604,-0.012104121,0.001075873,-0.08379719,0.112566076,-9.916828,47.3977505,8.545608,490.581,0.009999999776482582,0.0,-0.019999999552965164,-0.019999999552965164,47.39775060185338,8.545607925260706,490.5718078613281,0,0
1731239694321747,0.010752382,-0.015299915,0.0008095574,-0.1077392,0.16882984,-9.961122,47.3977505,8.5456079,490.596,0.009999999776482582,0.019999999552965164,-0.019999999552965164,-0.019999999552965164,47.397750577334996,8.545607834945251,490.58709716796875,0,0
1731239694721949,0.0064913156,-0.011837806,-0.0002557107,-0.06703777,0.16164722,-9.916827,47.397750599999995,8.5456079,490.617,0.019999999552965164,0.029999999329447746,-0.019999999552965164,-0.029999999329447746,47.39775064466353,8.545607707442022,490.59747314453125,0,0
1731239695117878,0.0067576384,-0.0017177936,0.0016085069,-0.095768206,0.16284432,-9.935982,47.397750599999995,8.545607799999999,490.63800000000003,0.009999999776482582,0.019999999552965164,0.0,-0.019999999552965164,47.397750748640675,8.545607628612384,490.6085205078125,0,0
1731239695519604,-0.0017644777,-0.0033156886,0.0010758747,-0.099359505,0.17720953,-9.961122,47.397750699999996,8.545607799999999,490.65000000000003,0.009999999776482582,0.029999999329447746,0.0,-0.07999999821186066,47.397750809223034,8.545607640045562,490.6189880371094,0,0
1731239695920043,0.0056923744,-0.005179901,-0.00078834064,-0.10414789,0.16643558,-9.957529,47.397750699999996,8.545607799999999,490.682,0.0,0.009999999776482582,0.0,-0.03999999910593033,47.39775087458128,8.545607670432968,490.63287353515625,0,0
1731239696320649,0.0016976361,-0.007843062,-0.0034514994,-0.119710214,0.16523851,-9.922813,47.397750699999996,8.545607799999999,490.682,0.0,0.0,0.009999999776482582,-0.04999999701976776,47.397750898616806,8.545607678176635,490.64453125,0,0
1731239696721086,-0.0025634258,-0.0025167386,-0.0023862356,-0.14844061,0.1664356,-9.950347,47.397750699999996,8.5456079,490.701,0.009999999776482582,-0.009999999776482582,0.009999999776482582,0.0,47.39775087379768,8.545607704969976,490.6529235839844,0,0
1731239697121251,-0.004427635,-0.0043809605,-0.003185179,-0.1376667,0.1688298,-9.933587,47.397750699999996,8.545608,490.716,0.019999999552965164,0.0,0.019999999552965164,-0.04999999701976776,47.397750822881505,8.545607750534835,490.6554260253906,0,0
1731239697521812,0.00089868176,-0.00038621188,0.0016085037,-0.1221044,0.16045007,-9.955134,47.397750699999996,8.5456082,490.713,0.019999999552965164,0.0,0.019999999552965164,-0.029999999329447746,47.39775079684356,8.545607837713321,490.66217041015625,0,0
1731239697921829,0.0014313157,0.00014642203,-0.0037178148,-0.12689282,0.16882981,-9.952742,47.397750699999996,8.5456082,490.719,0.019999999552965164,0.009999999776482582,0.029999999329447746,-0.03999999910593033,47.39775079151264,8.545607938594928,490.6681213378906,0,0
1731239698321956,0.003561845,-0.0017177928,0.00054324156,-0.123301506,0.171224,-9.943164,47.3977508,8.545608399999999,490.725,0.029999999329447746,0.009999999776482582,0.04999999701976776,-0.04999999701976776,47.39775080942808,8.545608053561377,490.6716003417969,0,0
1731239698721005,0.0016976341,0.012396962,-0.0005220177,-0.1005566,0.1496762,-9.937179,47.3977509,8.5456085,490.745,0.029999999329447746,0.009999999776482582,0.009999999776482582,0.0,47.39775084510454,8.545608289533458,490.67816162109375,0,0
1731239699121734,-3.4945076,-0.98282856,0.87136376,-0.16998842,0.08263838,-1.0295513,47.397751,8.5456086,490.665,0.08999999612569809,0.07000000029802322,0.03999999910593033,1.1100000143051147,47.39775105871962,8.54560853619177,490.4272766113281,1,3
1731239699520238,-6.1704125,-1.3031751,1.4691706,0.428562,0.5135947,-0.5064184,47.3977517,8.5456091,489.52,0.38999998569488525,0.3700000047683716,0.20999999344348907,4.71999979019165,47.39775170649659,8.545609109845243,488.8831787109375,1,3
1731239699915579,0.0024965813,-0.0030493732,-0.00052202394,-0.099359505,0.1939686,9.690486,47.3977516,8.5456109,488.104,0.0,0.0,-0.019999999552965164,0.009999999776482582,47.39775185118479,8.545614060242503,486.1478271484375,1,3
1731239700348491,0.0032955266,-0.0051798993,0.0021411409,-0.099359475,0.18558885,9.691682,47.3977516,8.5456109,488.101,0.0,0.0,0.0,0.009999999776482582,47.397752349038434,8.545620063368427,483.25494384765625,1,3
1731239700920123,0.0022302624,-0.004380952,-0.0015872872,-0.0969653,0.17361788,9.676122,47.3977516,8.5456109,488.094,0.0,0.0,0.009999999776482582,0.0,47.39775290563055,8.545620923611054,480.635498046875,1,3
1731239701319330,0.003828159,-0.0070441156,0.00054323766,-0.073023275,0.17242077,9.708443,47.3977516,8.5456109,488.104,0.0,0.0,0.019999999552965164,-0.009999999776482582,47.39775314441688,8.545618360672753,487.4652404785156,1,3
1731239701723528,0.0016976326,-0.003315688,-0.0015872887,-0.12689282,0.2119251,9.668939,47.3977516,8.5456109,488.106,0.0,0.0,-0.009999999776482582,-0.019999999552965164,47.39775290210771,8.545615031615691,489.37420654296875,1,3
1731239702121209,0.003561849,-0.005179902,-0.0037178146,-0.11492183,0.15685847,9.680909,47.3977516,8.5456109,488.096,0.0,0.0,0.0,0.0,47.39775283009978,8.545613013674012,489.82623291015625,1,3
1731239702521602,0.001431315,-0.004913585,1.0609774e-05,-0.06344648,0.16643526,9.698865,47.3977516,8.5456109,488.104,0.0,0.0,0.0,0.0,47.39775253942266,8.545612011202433,489.89495849609375,1,3
1731239702921523,0.005159745,-0.0033156865,-0.0037178155,-0.083797164,0.17122366,9.725202,47.3977517,8.5456109,488.106,0.0,0.0,0.0,-0.019999999552965164,47.397752408633295,8.545611519135603,489.86676025390625,1,3
1731239703321643,0.0032955334,-0.0057125343,0.00027692775,-0.12808993,0.18199758,9.716823,47.3977517,8.5456109,488.096,0.0,0.0,-0.009999999776482582,0.009999999776482582,47.3977522285818,8.54561141946533,489.8449401855469,1,3
1731239703723801,0.0024965792,-0.0046472684,0.0013421924,-0.12449863,0.18199758,9.690488,47.3977517,8.5456108,488.092,0.0,0.0,0.019999999552965164,0.009999999776482582,47.39775210391369,8.545611479118756,489.763427734375,1,3
