timestamp,gyro_rad[0],gyro_rad[1],gyro_rad[2],accelerometer_m_s2[0],accelerometer_m_s2[1],accelerometer_m_s2[2],latitude_deg,longitude_deg,altitude_msl_m,vel_m_s,vel_n_m_s,vel_e_m_s,vel_d_m_s,lat,lon,alt,motor_failure_flag,failed_motor
1731240542484418,0.003029211,-0.007044114,-0.002652548,-0.12689282,0.1580559,-9.993443,47.3977508,8.5456075,488.091,0.0,0.019999999552965164,0.009999999776482582,0.0,47.397750749778744,8.54560732550249,488.1329040527344,0,0
1731240542888652,-0.0004328932,-0.0075767483,-0.0029188693,-0.12808995,0.1484791,-9.944363,47.3977508,8.5456074,488.096,0.0,0.0,0.0,0.019999999552965164,47.39775078619773,8.545607394360031,488.1376647949219,0,0
1731240543287607,0.20516315,0.007603131,0.0034729477,-0.17597394,0.13052258,-10.3406,47.3977508,8.5456074,488.09700000000004,0.0,0.009999999776482582,-0.019999999552965164,0.009999999776482582,47.39775081374313,8.545607437233334,488.1403503417969,0,0
1731240543687932,-0.20283306,-0.15165393,-0.0037174742,-0.070629075,0.101792194,-10.85775,47.397750699999996,8.5456074,488.13800000000003,0.07999999821186066,-0.07000000029802322,-0.009999999776482582,-0.10999999940395355,47.39775059942932,8.545607176358759,488.1876525878906,0,0
1731240544088235,-0.036385573,-0.011837797,-0.00611466,-0.079008766,0.118551575,-9.938376,47.397749999999995,8.5456069,488.255,0.26999998092651367,-0.23999999463558197,-0.12999999523162842,-0.4699999988079071,47.39775005227761,8.545606655788553,488.34881591796875,0,0
1731240544488273,-0.029993983,-0.020892562,-0.0037178085,-0.11971023,0.09221537,-10.189767,47.3977492,8.5456062,488.46000000000004,0.22999998927116394,-0.19999998807907104,-0.10999999940395355,-0.550000011920929,47.39774943139427,8.54560621281895,488.5473937988281,0,0
1731240544884572,-0.018009754,-0.0083757015,-0.0021199272,-0.14006092,0.16882983,-10.091604,47.3977486,8.5456057,488.702,0.12999999523162842,-0.12999999523162842,-0.04999999701976776,-0.6800000071525574,47.397748914755745,8.545605878386354,488.78515625,0,0
1731240545284649,0.0027628948,0.000412736,-0.0039841314,-0.12569572,0.1736182,-9.97788,47.3977484,8.5456054,488.973,0.019999999552965164,0.0,-0.009999999776482582,-0.6599999666213989,47.39774864790411,8.545605787177209,489.0576171875,0,0
1731240545685630,0.02513345,0.0020106316,-0.0010546441,-0.13646962,0.22748774,-9.901266,47.3977485,8.5456054,489.248,0.07999999821186066,0.03999999910593033,0.009999999776482582,-0.699999988079071,47.39774873398382,8.545605845030169,489.3184509277344,0,0
1731240546085037,0.01741028,-0.008642016,-0.0029188762,-0.15442617,0.21312256,-9.859369,47.397748899999996,8.5456056,489.516,0.14000000059604645,0.12999999523162842,0.03999999910593033,-0.6699999570846558,47.397748997445284,8.54560597525112,489.58111572265625,0,0
1731240546486217,0.020606074,-0.0022504253,0.00080955616,-0.13287832,0.27297762,-9.764798,47.397749499999996,8.545605799999999,489.771,0.17000000178813934,0.17999999225139618,0.04999999701976776,-0.6100000143051147,47.397749423483155,8.545606147415272,489.8258056640625,0,0
1731240546888498,0.022736609,-0.007310424,1.0620326e-05,-0.18674786,0.24664132,-8.710151,47.3977502,8.545606099999999,489.987,0.17999999225139618,0.17999999225139618,0.03999999910593033,-0.4899999797344208,47.39774999898784,8.545606394492177,490.0190734863281,0,0
1731240547288258,0.021671342,-0.009707265,-0.003185167,-0.15921451,0.21072832,-10.14308,47.3977508,8.5456065,490.103,0.14999999105930328,0.1599999964237213,0.05999999865889549,-0.1599999964237213,47.3977505825273,8.545606542373074,490.1015319824219,0,0
1731240547684774,0.011018698,0.0038748472,0.0002769257,-0.07900877,0.20354575,-9.932392,47.397751199999995,8.5456068,490.17,0.10999999940395355,0.07000000029802322,0.04999999701976776,-0.17000000178813934,47.39775109013623,8.545606804085047,490.1817321777344,0,0
1731240548085080,-0.008955014,-0.00411463,0.0010758705,-0.1280899,0.183195,-9.895279,47.3977514,8.5456071,490.22200000000004,0.05999999865889549,0.029999999329447746,0.05999999865889549,-0.17000000178813934,47.397751298041,8.54560706376171,490.2528991699219,0,0
1731240548486084,-0.005226587,-0.0014514765,-0.00025570838,-0.12090731,0.13890229,-9.938376,47.397751299999996,8.5456074,490.288,0.04999999701976776,-0.009999999776482582,0.07000000029802322,-0.1599999964237213,47.39775133249484,8.545607340988672,490.3141174316406,0,0
1731240548887659,-0.0054929033,0.00041273993,0.0005432389,-0.12569574,0.16523851,-9.889295,47.397751199999995,8.545607799999999,490.336,0.05999999865889549,-0.03999999910593033,0.029999999329447746,-0.14000000059604645,47.39775125625812,8.545607630334707,490.3657531738281,0,0
1731240549287064,-0.0036286921,-0.008908324,0.00027692792,-0.13407542,0.1604501,-9.9299965,47.397751,8.5456079,490.38300000000004,0.07000000029802322,-0.07000000029802322,0.019999999552965164,-0.09999999403953552,47.39775111297919,8.545607797435103,490.41094970703125,0,0
1731240549688228,-0.011618172,-0.0075767483,-0.001320971,-0.08379719,0.13650809,-9.9144335,47.3977508,8.5456079,490.43,0.07000000029802322,-0.07000000029802322,0.0,-0.07999999821186066,47.39775088367028,8.545607862413263,490.4454345703125,0,0
1731240550085457,-0.00309606,-0.006511481,0.0008095572,-0.090979815,0.1377052,-9.915633,47.3977505,8.5456079,490.463,0.05999999865889549,-0.07000000029802322,-0.019999999552965164,-0.11999999731779099,47.39775065276111,8.545607843776612,490.474609375,0,0
1731240550486751,-0.00442764,-0.011305171,-0.000255705,-0.09696532,0.1341139,-9.963515,47.3977503,8.545607799999999,490.491,0.03999999910593033,-0.03999999910593033,-0.019999999552965164,-0.05999999865889549,47.39775044504025,8.545607760937411,490.50341796875,0,0
1731240550887725,0.0075565884,-0.004380954,-0.0010546518,-0.10055662,0.14967623,-9.924012,47.3977502,8.5456076,490.51,0.019999999552965164,-0.009999999776482582,-0.019999999552965164,-0.05999999865889549,47.397750326645294,8.545607664153735,490.5237121582031,0,0
1731240551287689,0.0048934305,-0.011038854,-0.0007883318,-0.07182617,0.1652385,-9.89887,47.3977502,8.5456076,490.534,0.019999999552965164,-0.009999999776482582,-0.019999999552965164,-0.04999999701976776,47.39775031517772,8.545607566833215,490.54046630859375,0,0
1731240551687136,-0.00069921464,-0.0030493734,0.0029400843,-0.1233015,0.1544646,-9.934785,47.3977502,8.5456076,490.556,0.019999999552965164,0.029999999329447746,-0.009999999776482582,-0.03999999910593033,47.39775030470126,8.545607489509365,490.5547790527344,0,0
1731240552086534,0.0051597436,-0.0070441137,-0.0018536068,-0.11971021,0.18558922,-9.932391,47.3977503,8.5456075,490.568,0.019999999552965164,0.04999999701976776,-0.009999999776482582,-0.07000000029802322,47.39775038693651,8.545607466235454,490.5662536621094,0,0
1731240552488013,0.007023953,-0.008375694,0.0016085105,-0.12808993,0.15805592,-9.902463,47.3977504,8.5456074,490.598,0.019999999552965164,0.0,0.0,-0.04999999701976776,47.39775054000239,8.545607442312452,490.5794372558594,0,0
1731240552885546,-0.0028297435,-0.009174639,-0.00078832725,-0.113724686,0.15566169,-9.941968,47.3977505,8.5456074,490.599,0.009999999776482582,0.019999999552965164,-0.009999999776482582,-0.04999999701976776,47.397750573488814,8.545607431400986,490.5890808105469,0,0
1731240553284691,0.0035618471,-0.01263675,-0.0013209577,-0.11971019,0.1544646,-9.95633,47.3977505,8.5456075,490.615,0.009999999776482582,0.0,0.009999999776482582,-0.04999999701976776,47.397750590401486,8.545607392697658,490.5968017578125,0,0
1731240553688215,0.000632368,-0.0011851604,-0.0015872857,-0.1089363,0.14847909,-9.97429,47.3977505,8.5456076,490.63,0.019999999552965164,0.0,0.009999999776482582,-0.019999999552965164,47.39775058998013,8.5456074231994,490.6024169921875,0,0
1731240554086172,0.0011650014,-0.0073104296,-0.00025570372,-0.15322901,0.17361821,-9.931192,47.3977505,8.5456077,490.62600000000003,0.019999999552965164,0.0,0.019999999552965164,-0.029999999329447746,47.39775058275641,8.545607487885666,490.60711669921875,0,0
1731240554484964,0.00036605165,-0.00038620929,-0.001853601,-0.14844061,0.16045009,-9.937177,47.397750599999995,8.5456077,490.63100000000003,0.029999999329447746,0.0,0.019999999552965164,0.0,47.39775057902509,8.545607575350479,490.6099853515625,0,0
1731240554884283,0.0024965804,0.0028095823,-0.0021199181,-0.08978272,0.14728202,-9.967107,47.397750699999996,8.5456079,490.639,0.029999999329447746,0.009999999776482582,0.04999999701976776,0.029999999329447746,47.39775057933724,8.545607674681358,490.6109619140625,0,0
1731240555286199,2.6656637,1.0228032,0.8711063,-0.0023943223,0.21791078,-1.0139891,47.397750699999996,8.545608099999999,490.62600000000003,0.009999999776482582,0.0,0.019999999552965164,0.5899999737739563,47.397750392231046,8.545607658304156,490.34075927734375,1,4
1731240555688051,4.37619,1.0480849,1.5164716,-0.47884047,-0.36627445,-0.59859514,47.3977503,8.545607799999999,489.67,0.25,-0.20999999344348907,-0.10999999940395355,4.179999828338623,47.39774979416935,8.54560713188694,488.8343200683594,1,4
1731240556087406,0.00036605354,-0.006245166,-0.0010546551,-0.10295079,0.16643524,9.644995,47.397749,8.5456054,488.105,0.0,0.009999999776482582,0.019999999552965164,-0.009999999776482582,47.39774981231373,8.545609492073,486.2765808105469,1,4
1731240556485340,0.0024965778,-0.0051799007,-0.0018536043,-0.10414789,0.16044976,9.668938,47.397749,8.545605499999999,488.104,0.0,-0.009999999776482582,-0.009999999776482582,-0.04999999701976776,47.39775050936532,8.545612837501722,483.8605651855469,1,4
1731240556884697,0.0014313129,-0.009707274,-0.00025570786,-0.11731599,0.20115119,9.676122,47.397749,8.545605499999999,488.101,0.0,0.0,-0.009999999776482582,0.0,47.39775075723739,8.54561319796355,481.7713317871094,1,4
1731240557285741,0.004893421,-0.0062451665,0.0013421914,-0.1029508,0.14967586,9.678515,47.397749,8.545605499999999,488.094,0.0,0.0,-0.009999999776482582,0.029999999329447746,47.39775043363599,8.545611136228574,480.6578674316406,1,4
1731240557686321,0.0040944745,-0.0049135857,0.001075876,-0.1137247,0.18319471,9.65577,47.397749,8.545605499999999,488.103,0.0,0.0,0.009999999776482582,0.009999999776482582,47.397750015697,8.545608973813895,487.39410400390625,1,4
1731240558085585,0.0022302659,-0.00784306,-0.0066472962,-0.12090732,0.13171935,9.666545,47.397749,8.545605499999999,488.106,0.0,0.0,-0.009999999776482582,-0.019999999552965164,47.3977496918792,8.545607476689602,489.1900634765625,1,4
1731240558486965,0.0016976306,-0.004380952,-0.0013209708,-0.11731601,0.18080048,9.676122,47.397749,8.545605499999999,488.096,0.0,0.019999999552965164,0.0,-0.019999999552965164,47.397749457873715,8.54560671215296,489.7802734375,1,4
1731240558887311,0.0027628983,-0.0057125343,-0.0018536046,-0.124498636,0.174815,9.66415,47.397749,8.545605499999999,488.106,0.0,0.0,0.019999999552965164,-0.019999999552965164,47.39774945723476,8.54560641718601,489.83209228515625,1,4
1731240559288493,0.0027628948,-0.005712536,0.0021411357,-0.12569572,0.14009906,9.720414,47.397749,8.5456056,488.105,0.0,0.0,0.0,0.03999999910593033,47.39774944256503,8.545606402522099,489.7882385253906,1,4
1731240559686019,-0.00069921324,-0.00864201,-0.0010546568,-0.13886382,0.15925266,9.719215,47.397749,8.545605499999999,488.09700000000004,0.0,0.0,0.009999999776482582,0.0,47.39774938954476,8.545606376247624,489.71502685546875,1,4
