timestamp,gyro_rad[0],gyro_rad[1],gyro_rad[2],accelerometer_m_s2[0],accelerometer_m_s2[1],accelerometer_m_s2[2],latitude_deg,longitude_deg,altitude_msl_m,vel_m_s,vel_n_m_s,vel_e_m_s,vel_d_m_s,lat,lon,alt,motor_failure_flag,failed_motor
1731238449149326,0.001431316,-0.007310429,-0.0013209734,-0.1304841,0.195166,-9.983864,47.3977508,8.5456074,488.092,0.0,-0.019999999552965164,0.009999999776482582,-0.029999999329447746,47.397750803817836,8.54560740512546,488.1589050292969,0,0
1731238449545776,0.0032955292,-0.003848321,-0.0010546535,-0.14245515,0.19157472,-9.962318,47.3977508,8.5456075,488.091,0.0,0.019999999552965164,0.009999999776482582,0.0,47.397750743291276,8.545607445383034,488.1584167480469,0,0
1731238449946548,0.0032955278,-0.008375696,-0.0023862373,-0.15083484,0.17840664,-9.949151,47.3977508,8.5456074,488.098,0.0,0.0,0.0,-0.019999999552965164,47.39775076094363,8.545607506750464,488.15667724609375,0,0
1731238450346899,0.108756706,0.014527496,-0.0045166067,-0.16998841,0.21551672,-10.34898,47.3977508,8.5456074,488.09700000000004,0.0,0.0,0.0,-0.009999999776482582,47.39775080083437,8.54560754055701,488.1587219238281,0,0
1731238450747602,-0.13492249,-0.1258211,0.00054323394,-0.06464356,0.10179217,-10.801484,47.397750699999996,8.5456073,488.144,0.09999999403953552,-0.09999999403953552,-0.05999999865889549,-0.17999999225139618,47.39775066687359,8.54560733625203,488.20501708984375,0,0
1731238451148055,-0.0467719,-0.0267515,-0.004783113,-0.057460964,0.09460956,-9.97429,47.397750099999996,8.5456066,488.274,0.26999998092651367,-0.20999999344348907,-0.17000000178813934,-0.4899999797344208,47.39775013794671,8.54560661504611,488.35699462890625,0,0
1731238451548374,-0.02866242,-0.031012548,-0.004516762,-0.098162405,0.091018274,-10.20533,47.397749399999995,8.5456057,488.483,0.20999999344348907,-0.14999999105930328,-0.14000000059604645,-0.5600000023841858,47.397749564714424,8.545605958503321,488.5570983886719,0,0
1731238451949487,-0.008156069,-0.01529991,-0.0018536027,-0.059855156,0.15685879,-10.055692,47.397749,8.5456051,488.733,0.10999999940395355,-0.03999999910593033,-0.08999999612569809,-0.6100000143051147,47.39774916037427,8.54560544447166,488.7957458496094,0,0
1731238452449241,0.024600819,-0.008375692,-0.0029188523,-0.114921816,0.20713705,-9.981471,47.397748899999996,8.5456048,489.0,0.019999999552965164,0.009999999776482582,-0.03999999910593033,-0.6800000071525574,47.39774913710273,8.545605142204629,489.1136779785156,0,0
1731238452846070,0.009420799,-0.0043809554,-0.0010546496,-0.13766672,0.21791095,-9.915631,47.397749,8.545604899999999,489.28700000000003,0.07999999821186066,0.07999999821186066,0.03999999910593033,-0.7299999594688416,47.39774929784053,8.545605096458642,489.37646484375,0,0
1731238453246244,0.010219749,0.001744313,-0.0005220228,-0.17477688,0.24305007,-9.828242,47.397749399999995,8.5456053,489.56,0.12999999523162842,0.08999999612569809,0.08999999612569809,-0.6800000071525574,47.39774959292498,8.545605376967563,489.6443786621094,0,0
1731238453646408,0.00808922,0.011864329,-0.001320969,-0.18195945,0.20953123,-9.81268,47.3977498,8.5456057,489.822,0.14999999105930328,0.12999999523162842,0.10999999940395355,-0.6299999952316284,47.39774991178098,8.54560588400393,489.89056396484375,0,0
1731238454047022,0.014747121,0.005206425,1.0619146e-05,-0.14245512,0.22150218,-8.768808,47.3977503,8.5456064,490.044,0.14999999105930328,0.09999999403953552,0.12999999523162842,-0.5,47.397750301246184,8.545606432854424,490.08563232421875,0,0
1731238454447288,0.008888158,0.011065386,1.0606794e-05,-0.13646962,0.17720953,-10.189767,47.397750599999995,8.5456069,490.165,0.11999999731779099,0.05999999865889549,0.07000000029802322,-0.17999999225139618,47.3977506031848,8.54560700709889,490.1662902832031,0,0
1731238454847836,-0.0030960562,-0.007576748,-0.0015872833,-0.13527252,0.17242114,-9.903662,47.3977508,8.5456073,490.23400000000004,0.07000000029802322,0.03999999910593033,0.03999999910593033,-0.17999999225139618,47.39775078400086,8.545607344536268,490.25213623046875,0,0
1731238455248285,0.000898685,-0.007576746,-0.0021199188,-0.0969653,0.14847909,-9.935982,47.3977509,8.5456074,490.286,0.029999999329447746,0.019999999552965164,0.019999999552965164,-0.17000000178813934,47.39775087594345,8.5456074627479,490.3237609863281,0,0
1731238455648786,0.00036605122,-0.00624517,0.002407448,-0.12330152,0.1580559,-9.932391,47.397751,8.5456075,490.35200000000003,0.0,0.009999999776482582,0.019999999552965164,-0.14999999105930328,47.39775091818047,8.545607506807666,490.3820495605469,0,0
1731238456049495,0.0024965806,-0.0014514766,-0.003984131,-0.11133052,0.147282,-9.927603,47.397751,8.5456076,490.399,0.009999999776482582,0.0,-0.009999999776482582,-0.14000000059604645,47.39775094448346,8.54560756314915,490.43084716796875,0,0
1731238456445959,0.0027629037,-0.00944096,-0.0002557034,-0.12330153,0.17002691,-9.926405,47.3977509,8.5456074,490.44800000000004,0.019999999552965164,-0.009999999776482582,-0.019999999552965164,-0.08999999612569809,47.39775094685446,8.54560752479599,490.4738464355469,0,0
1731238456846483,-0.005492905,-0.009973585,1.0618649e-05,-0.11013339,0.15087329,-9.943163,47.3977509,8.5456074,490.492,0.029999999329447746,-0.029999999329447746,-0.019999999552965164,-0.07000000029802322,47.397750907156926,8.545607411382397,490.50543212890625,0,0
1731238457246410,-0.0046939533,-0.00331569,-0.0015872944,-0.10295079,0.15207039,-9.933587,47.397750699999996,8.5456072,490.52500000000003,0.029999999329447746,-0.03999999910593033,-0.029999999329447746,-0.12999999523162842,47.39775081022919,8.545607308717091,490.5329284667969,0,0
1731238457646985,-0.0020307903,-0.009707278,-0.0031851854,-0.08738851,0.17002691,-9.929998,47.397750599999995,8.5456072,490.55400000000003,0.019999999552965164,-0.029999999329447746,-0.009999999776482582,-0.07000000029802322,47.397750686227056,8.545607194635606,490.5630798339844,0,0
1731238458047347,0.0038281626,-0.003049372,-0.00025570474,-0.107739195,0.11855158,-9.918025,47.3977505,8.5456071,490.574,0.009999999776482582,-0.009999999776482582,0.0,-0.05999999865889549,47.39775059700573,8.545607158732148,490.58343505859375,0,0
1731238458447631,0.0030292172,-0.005712535,0.00027692376,-0.11492181,0.1412965,-9.931193,47.3977505,8.5456072,490.599,0.0,0.009999999776482582,0.0,-0.03999999910593033,47.397750574375166,8.54560716534125,490.5997009277344,0,0
1731238458848413,0.007822904,-0.0025167412,1.061005e-05,-0.09816242,0.14967622,-9.927604,47.3977505,8.5456072,490.62,0.009999999776482582,0.019999999552965164,0.0,-0.029999999329447746,47.39775061487996,8.5456072001686,490.6114501953125,0,0
1731238459249014,0.0046271086,-0.0014514764,0.00027692664,-0.14125802,0.16643563,-9.927602,47.3977505,8.5456073,490.63100000000003,0.009999999776482582,0.029999999329447746,0.0,-0.07000000029802322,47.39775068053382,8.545607223380966,490.6216735839844,0,0
1731238459649399,0.0019639502,-0.0070441146,-0.0010546583,-0.0981624,0.17122401,-9.943163,47.3977505,8.5456073,490.661,0.009999999776482582,-0.019999999552965164,0.009999999776482582,-0.04999999701976776,47.39775075938873,8.545607235702095,490.6344909667969,0,0
1731238460046362,-0.011884482,-0.006245182,-0.0023862408,-0.122104414,0.18678631,-9.935982,47.3977505,8.5456074,490.66200000000003,0.019999999552965164,0.0,0.0,-0.04999999701976776,47.397750689420356,8.545607271701497,490.6454162597656,0,0
1731238460447207,0.0016976357,-0.009174643,-0.0029188711,-0.111330494,0.14847909,-9.9144335,47.3977505,8.5456076,490.678,0.019999999552965164,-0.019999999552965164,0.019999999552965164,0.0,47.39775065121496,8.545607289624465,490.65252685546875,0,0
1731238460847296,0.0006323694,-0.0011851618,0.0029400883,-0.11372471,0.19875734,-9.977881,47.3977505,8.5456077,490.692,0.029999999329447746,-0.009999999776482582,0.019999999552965164,-0.019999999552965164,47.397750587883344,8.545607385597656,490.6536560058594,0,0
1731238461248833,0.0016976295,-0.0051798993,0.00027692856,-0.1280899,0.17122401,-9.959924,47.3977505,8.5456079,490.69,0.029999999329447746,0.0,0.029999999329447746,-0.029999999329447746,47.397750552884304,8.545607510632344,490.65814208984375,0,0
1731238461648875,0.0027628965,-0.002250424,-0.0007883383,-0.10295079,0.18439211,-9.9539385,47.3977505,8.545608,490.697,0.029999999329447746,0.009999999776482582,0.019999999552965164,-0.009999999776482582,47.397750563931695,8.545607652651661,490.6625061035156,0,0
1731238462046261,0.0046271095,-0.000119895296,-0.0034514992,-0.110133395,0.19756024,-9.956332,47.397750599999995,8.5456082,490.706,0.029999999329447746,0.009999999776482582,0.03999999910593033,0.019999999552965164,47.39775059573395,8.54560777241261,490.6654357910156,0,0
1731238462449371,-0.0022971048,0.006271694,1.0616488e-05,-0.112527594,0.159253,-9.92401,47.397750599999995,8.545608399999999,490.728,0.029999999329447746,0.009999999776482582,0.009999999776482582,-0.009999999776482582,47.397750643040474,8.545607952329453,490.6664123535156,0,0
1731238462846559,0.0043607918,-0.009174642,-0.0015872854,-0.1364696,0.17960371,-9.93239,47.397750699999996,8.545608399999999,490.74,0.019999999552965164,0.029999999329447746,0.019999999552965164,-0.029999999329447746,47.397750671525166,8.545608067567965,490.6716003417969,0,0
1731238463247131,0.011551326,-0.0062451693,-0.001587284,-0.10893631,0.1508733,-9.897675,47.3977508,8.545608399999999,490.755,0.019999999552965164,0.03999999910593033,0.019999999552965164,-0.03999999910593033,47.39775076007289,8.545608147271286,490.6770324707031,0,0
1731238463646754,0.008888166,-0.004114636,-0.0021199228,-0.098162375,0.15805589,-9.945558,47.3977509,8.545608399999999,490.769,0.019999999552965164,0.0,-0.019999999552965164,-0.08999999612569809,47.39775088265965,8.545608202126386,490.6826477050781,0,0
1731238464046483,-0.0041613244,-0.011837804,-0.0005220373,-0.08140299,0.16882981,-9.898871,47.397751,8.5456082,490.779,0.019999999552965164,0.0,-0.029999999329447746,-0.019999999552965164,47.39775091377095,8.54560813847616,490.69403076171875,0,0
1731238464449267,-0.0022971123,-0.0051798965,0.0018748223,-0.077811666,0.17361821,-9.914432,47.397751,8.545608099999999,490.781,0.019999999552965164,0.0,-0.009999999776482582,-0.019999999552965164,47.39775090113524,8.545607982098563,490.69769287109375,0,0
1731238464847597,0.0040944773,-0.0054462166,-0.0002557035,-0.09337398,0.17361821,-9.94077,47.397751,8.545608,490.79900000000004,0.019999999552965164,0.0,-0.009999999776482582,0.0,47.39775089398401,8.54560789810416,490.69805908203125,0,0
1731238465246480,2.3516738,-1.4022717,-0.63408303,-0.11372471,0.16164707,-1.3539659,47.397751,8.545607799999999,490.81100000000004,0.019999999552965164,0.0,-0.029999999329447746,-0.04999999701976776,47.397750812107645,8.545607914279405,490.6462707519531,1,1
1731238465646225,5.6422687,-0.69999987,-1.2745992,0.064643316,-0.08136444,-0.1975664,47.3977508,8.5456079,490.368,0.1599999964237213,-0.12999999523162842,0.05999999865889549,2.690000057220459,47.39775016292753,8.545608017858196,489.5896911621094,1,1
1731238466046601,0.0027629,-0.007843062,-0.00025571394,-0.1125276,0.15446424,9.677318,47.3977497,8.5456088,488.494,0.5199999809265137,-0.38999998569488525,0.35999998450279236,7.0,47.39775029702528,8.545609449865026,486.9648132324219,1,1
1731238466447200,0.0056923735,-0.0067777988,-0.00052201713,-0.14484933,0.18439178,9.685699,47.3977504,8.5456103,488.106,0.0,0.0,0.0,-0.019999999552965164,47.397750170880144,8.545610424987649,483.5255126953125,1,1
1731238466849048,0.001963946,-0.001984108,0.0010758723,-0.08260009,0.15566136,9.6701355,47.3977504,8.5456102,488.09700000000004,0.0,0.0,0.009999999776482582,0.0,47.397750193423654,8.545610800546728,480.49383544921875,1,1
1731238467248236,0.0024965794,-0.004114636,0.0013421918,-0.12210444,0.1819976,9.690488,47.3977504,8.5456102,488.092,0.0,0.0,0.019999999552965164,0.009999999776482582,47.39774984502467,8.545610051556572,478.0791015625,1,1
1731238467648941,-0.00016657915,-0.0054462184,0.00027692426,-0.1304841,0.17122369,9.725203,47.3977503,8.5456102,488.10900000000004,0.0,-0.009999999776482582,-0.009999999776482582,-0.019999999552965164,47.397749098963274,8.54560916812228,487.5603942871094,1,1
1731238468047241,0.001963949,-0.004114638,-0.0021199165,-0.12449862,0.16284394,9.707245,47.3977503,8.5456102,488.098,0.0,0.009999999776482582,0.0,-0.009999999776482582,47.39774871369815,8.545608693999421,488.7430725097656,1,1
1731238468446577,0.002762896,-0.004380953,-0.0018536032,-0.15322906,0.19157438,9.702458,47.3977503,8.5456103,488.106,0.0,0.009999999776482582,0.0,-0.03999999910593033,47.39774865212272,8.54560850009072,489.7491455078125,1,1
1731238468846694,0.0019639456,-0.0065114815,-0.0010546529,-0.09816242,0.16284397,9.674924,47.3977503,8.5456103,488.112,0.0,-0.019999999552965164,0.0,0.07000000029802322,47.39774892172142,8.5456088023922,490.09552001953125,1,1
1731238469246963,0.002762893,-0.008908327,1.0612498e-05,-0.15322906,0.16404109,9.696472,47.3977503,8.5456102,488.1,0.0,0.0,0.0,0.009999999776482582,47.39774904446635,8.545608978522276,490.0316467285156,1,1
1731238469647187,0.0016976278,-0.008908326,-0.0021199177,-0.106542096,0.1951657,9.700063,47.3977503,8.5456102,488.1,0.0,0.0,0.019999999552965164,0.0,47.397749089647746,8.545608995913078,489.9538879394531,1,1
1731238470048218,9.973324e-05,-0.004913586,-0.002918863,-0.118513115,0.14967586,9.680909,47.3977504,8.5456102,488.096,0.0,-0.009999999776482582,-0.009999999776482582,-0.009999999776482582,47.39774932906404,8.545609403532413,489.87542724609375,1,1
