timestamp,gyro_rad[0],gyro_rad[1],gyro_rad[2],accelerometer_m_s2[0],accelerometer_m_s2[1],accelerometer_m_s2[2],latitude_deg,longitude_deg,altitude_msl_m,vel_m_s,vel_n_m_s,vel_e_m_s,vel_d_m_s,lat,lon,alt,motor_failure_flag,failed_motor
1731237768297006,0.005692373,-0.0051799025,-0.001320967,-0.16041167,0.17601246,-9.934786,47.3977508,8.5456074,488.092,0.0,-0.019999999552965164,0.009999999776482582,-0.029999999329447746,47.397750778595395,8.545607314565531,488.1405029296875,0,0
1731237768494297,0.001697631,-0.0057125324,1.0610807e-05,-0.141258,0.16643561,-9.94077,47.3977508,8.5456075,488.092,0.0,-0.009999999776482582,0.009999999776482582,0.0,47.39775074657598,8.545607328866298,488.1437072753906,0,0
1731237768699640,0.003561845,-0.0033156883,0.00027692676,-0.1843537,0.16763274,-9.977881,47.3977508,8.5456074,488.086,0.0,0.009999999776482582,0.0,0.0,47.39775072088253,8.545607358781734,488.145751953125,0,0
1731237769099806,0.004627118,-0.007843061,-0.0031851833,-0.16520002,0.11376316,-9.924008,47.3977508,8.5456074,488.105,0.0,0.0,0.009999999776482582,0.029999999329447746,47.39775072460534,8.545607417476193,488.1415100097656,0,0
1731237769497111,0.1484378,0.2310425,0.022115268,-0.11133052,0.11376319,-10.484254,47.3977508,8.5456074,488.104,0.009999999776482582,0.0,-0.019999999552965164,-0.07999999821186066,47.39775068407098,8.545607446832463,488.1566467285156,0,0
1731237769899726,-0.09896992,-0.124489486,-0.0029189293,-0.11611893,0.100595094,-10.742829,47.3977504,8.5456071,488.183,0.2199999988079071,-0.1899999976158142,-0.11999999731779099,-0.35999998450279236,47.39775027089498,8.54560688758962,488.26409912109375,0,0
1731237770299673,-0.035320297,-0.017696785,-0.0023862685,-0.11252761,0.105383486,-10.2484255,47.3977496,8.5456063,488.38,0.23999999463558197,-0.2199999988079071,-0.12999999523162842,-0.5099999904632568,47.39774968931391,8.545606238424863,488.45947265625,0,0
1731237770700034,-0.014547649,-0.011837809,-0.0045167645,-0.0909798,0.1520704,-10.121533,47.397749,8.545605799999999,488.58500000000004,0.1599999964237213,-0.12999999523162842,-0.09999999403953552,-0.5999999642372131,47.39774915452247,8.545605818196009,488.6809997558594,0,0
1731237771100018,0.0030292156,-0.012636753,-0.0045167655,-0.13407545,0.19636317,-10.028159,47.3977487,8.545605499999999,488.845,0.03999999910593033,-0.009999999776482582,-0.009999999776482582,-0.6599999666213989,47.3977488631486,8.545605560527415,488.9335632324219,0,0
1731237771496565,0.02619872,0.011598013,-0.0015872801,-0.12928703,0.20354578,-9.957531,47.3977487,8.545605499999999,489.12100000000004,0.04999999701976776,0.03999999910593033,0.03999999910593033,-0.6800000071525574,47.39774893961045,8.54560560953283,489.1983947753906,0,0
1731237771900189,0.011817636,0.009733808,-0.0069136037,-0.12569572,0.24903557,-9.92401,47.397749,8.5456057,489.39300000000003,0.11999999731779099,0.09999999403953552,0.05999999865889549,-0.6699999570846558,47.39774917722353,8.545605915355559,489.4591979980469,0,0
1731237772297413,0.010219747,-0.004380953,-0.0023862373,-0.12808993,0.21312253,-9.816272,47.397749499999996,8.5456059,489.658,0.14000000059604645,0.14999999105930328,0.03999999910593033,-0.6499999761581421,47.39774951479098,8.545606246103674,489.7078552246094,0,0
1731237772697462,0.022736613,-0.015566223,-0.0037178043,-0.13527252,0.19277182,-9.3506,47.397750099999996,8.5456063,489.90000000000003,0.14000000059604645,0.14000000059604645,0.05999999865889549,-0.5699999928474426,47.397749998427415,8.545606458250198,489.94342041015625,0,0
1731237773098965,0.015812386,-0.0054462235,-0.0021199158,-0.118513145,0.24783847,-9.619947,47.3977505,8.5456066,490.089,0.11999999731779099,0.09999999403953552,0.029999999329447746,-0.2800000011920929,47.39775045334006,8.545606689194729,490.075927734375,0,0
1731237773497313,0.0062250043,-0.010772538,-0.0018536067,-0.14125802,0.1772095,-10.058085,47.3977508,8.5456069,490.17,0.07999999821186066,0.04999999701976776,0.029999999329447746,-0.14000000059604645,47.3977507641521,8.545606849767829,490.1572265625,0,0
1731237773899373,-0.0046939533,-0.006511479,-0.0026525615,-0.1209073,0.1808008,-9.8869,47.397751,8.5456071,490.24,0.04999999701976776,0.03999999910593033,0.019999999552965164,-0.20999999344348907,47.397750901542445,8.545606990730944,490.2373352050781,0,0
1731237774297423,0.0056923763,-0.009973592,-0.0015872881,-0.1077392,0.21192548,-9.87972,47.3977511,8.5456074,490.302,0.03999999910593033,0.0,0.05999999865889549,-0.14000000059604645,47.39775099076539,8.54560707562333,490.3107604980469,0,0
1731237774697431,-0.002030793,0.008668537,-0.0010546531,-0.1496377,0.16523851,-9.900068,47.3977511,8.5456076,490.365,0.03999999910593033,0.0,0.04999999701976776,-0.12999999523162842,47.397750994460125,8.545607351333274,490.366455078125,0,0
1731237775096686,0.0051597427,-0.0046472675,-0.00025570084,-0.10534497,0.13411388,-9.9144335,47.397751,8.545607799999999,490.425,0.03999999910593033,-0.019999999552965164,0.03999999910593033,-0.11999999731779099,47.39775097842442,8.545607624546276,490.4140319824219,0,0
1731237775498450,-0.0012318427,-0.000386215,-0.00558203,-0.122104414,0.147282,-9.89887,47.3977509,8.545608,490.469,0.029999999329447746,-0.029999999329447746,0.0,-0.07000000029802322,47.397750923686694,8.545607826835608,490.4560546875,0,0
1731237775899147,9.973185e-05,-0.015033597,-0.00052201323,-0.13407543,0.17840664,-9.914435,47.3977508,8.5456079,490.515,0.029999999329447746,-0.04999999701976776,-0.009999999776482582,-0.08999999612569809,47.39775082823096,8.545607844760989,490.48828125,0,0
1731237776299416,3.3532948,-1.0515413,-0.83671117,-0.235829,0.24664117,-1.002018,47.397750599999995,8.5456079,490.509,0.07000000029802322,-0.04999999701976776,0.0,0.429999977350235,47.39775042207158,8.545607903135261,490.2919921875,1,1
1731237776697218,5.4784613,-1.5481522,-1.3927345,0.33039975,-0.58893514,-1.8052728,47.397749999999995,8.545608099999999,489.617,0.3199999928474426,-0.29999998211860657,0.11999999731779099,4.089999675750732,47.397749624515576,8.545608128170274,488.91131591796875,1,1
1731237777096272,0.0022302638,-0.006245166,0.00027692583,-0.13886383,0.15326716,9.678515,47.397749499999996,8.545609899999999,488.1,0.0,0.009999999776482582,0.0,-0.03999999910593033,47.3977469703281,8.54561115103201,485.8817443847656,1,1
1731237777500986,0.0022302659,-0.0057125348,-0.0026525473,-0.08379719,0.15446426,9.625843,47.397749499999996,8.545609899999999,488.108,0.0,0.009999999776482582,0.019999999552965164,-0.019999999552965164,47.39774378412076,8.54561506526752,482.61553955078125,1,1
1731237777896742,0.003029217,-0.007310431,-0.0015872886,-0.12689282,0.15805557,9.703654,47.397749499999996,8.545609899999999,488.106,0.0,-0.009999999776482582,0.019999999552965164,0.0,47.39774369804109,8.545616442788138,480.1846923828125,1,1
1731237778298938,0.004360793,-0.003582005,-0.00025570526,-0.110133395,0.17840628,9.653378,47.397749499999996,8.545609899999999,488.104,0.0,-0.009999999776482582,0.0,0.0,47.39774510801745,8.545615563558757,487.2110900878906,1,1
1731237778699773,0.0011649984,-0.0051798993,-0.0010546591,-0.074220374,0.14249323,9.647391,47.3977496,8.545609899999999,488.111,0.0,-0.009999999776482582,-0.009999999776482582,0.0,47.397746985958314,8.545613350679247,488.73822021484375,1,1
1731237779099430,0.004360792,-0.0046472717,-0.004250444,-0.090979785,0.16763237,9.712034,47.3977496,8.545609899999999,488.104,0.0,0.0,0.0,0.0,47.39774799753663,8.545611860901992,489.4923400878906,1,1
1731237779496336,0.0019639477,-0.0030493727,1.0607827e-05,-0.13886383,0.17720918,9.644998,47.397749499999996,8.545609899999999,488.108,0.0,0.0,0.009999999776482582,0.009999999776482582,47.397748635531386,8.545610926429783,489.7469177246094,1,1
1731237779897030,0.0016976339,-0.00411464,0.00054323743,-0.09337399,0.17481495,9.665346,47.3977496,8.545609899999999,488.115,0.0,0.0,0.0,0.0,47.39774889955383,8.545610595367895,489.7333679199219,1,1
1731237780296898,0.0032955254,-0.0057125343,-0.0026525494,-0.12210444,0.20115122,9.648589,47.397749499999996,8.54561,488.104,0.0,0.0,0.009999999776482582,0.0,47.397749053559,8.545610468691267,489.7046813964844,1,1
1731237780700007,9.973906e-05,-0.0027830533,-0.0063809804,-0.088585585,0.17960338,9.653377,47.397749499999996,8.545609899999999,488.104,0.0,0.0,0.0,0.019999999552965164,47.397749056341965,8.545610531096932,489.62445068359375,1,1
1731237781098582,0.0008986832,-0.004114636,-0.0005220236,-0.11731601,0.17720917,9.684501,47.3977496,8.54561,488.108,0.0,0.0,-0.009999999776482582,0.0,47.39774910880717,8.545610457607712,489.528564453125,1,1
