timestamp,gyro_rad[0],gyro_rad[1],gyro_rad[2],accelerometer_m_s2[0],accelerometer_m_s2[1],accelerometer_m_s2[2],latitude_deg,longitude_deg,altitude_msl_m,vel_m_s,vel_n_m_s,vel_e_m_s,vel_d_m_s,lat,lon,alt,motor_failure_flag,failed_motor
1731237658294160,0.005426059,-0.0067777983,-0.0015872829,-0.13287832,0.16643563,-9.91683,47.3977508,8.5456074,488.092,0.0,-0.019999999552965164,0.009999999776482582,-0.029999999329447746,47.39775078913934,8.545607317016612,488.1424255371094,0,0
1731237658494396,0.0035618457,-0.0038483206,-0.0010546547,-0.15083486,0.1652385,-9.980275,47.3977508,8.5456075,488.091,0.0,0.019999999552965164,0.009999999776482582,0.0,47.397750754957876,8.5456073316028,488.1453552246094,0,0
1731237658891481,0.0040944726,-0.008109379,-0.00052202004,-0.16400294,0.19157472,-9.91204,47.3977508,8.5456074,488.096,0.0,0.0,0.0,0.019999999552965164,47.397750778454466,8.545607399664789,488.1480407714844,0,0
1731237659292134,0.13858412,-0.0070442,-0.0015871862,-0.13886383,0.22748774,-10.289127,47.3977508,8.5456074,488.09700000000004,0.0,0.009999999776482582,-0.019999999552965164,0.009999999776482582,47.39775081076401,8.54560745017649,488.1473693847656,0,0
1731237659691819,-0.15409726,-0.07655267,0.0010758518,-0.093374,0.092215374,-10.781134,47.397750699999996,8.5456074,488.14,0.08999999612569809,-0.07000000029802322,-0.019999999552965164,-0.11999999731779099,47.39775065347636,8.545607266130094,488.1861267089844,0,0
1731237660092500,-0.03425504,-0.012104114,-0.006381014,-0.0993595,0.081441455,-10.028159,47.397749999999995,8.5456068,488.266,0.26999998092651367,-0.22999998927116394,-0.14000000059604645,-0.47999998927116394,47.39775016712637,8.545606713709223,488.3267517089844,0,0
1731237660492342,-0.03745083,-0.02994729,-0.0061146542,-0.09457108,0.08862405,-10.165824,47.3977492,8.545606099999999,488.474,0.22999998927116394,-0.1899999976158142,-0.10999999940395355,-0.5600000023841858,47.39774958078992,8.545606212756288,488.52825927734375,0,0
1731237660892388,-0.016145542,-0.00944097,-0.0042504445,-0.08379719,0.12693128,-10.037736,47.3977487,8.5456056,488.721,0.12999999523162842,-0.11999999731779099,-0.04999999701976776,-0.6899999976158142,47.39774906971358,8.545605834248313,488.767333984375,0,0
1731237661293218,-0.00575922,-0.0043809568,-0.0053157057,-0.111330524,0.16643563,-9.979077,47.3977484,8.5456053,488.99600000000004,0.019999999552965164,0.0,-0.009999999776482582,-0.6699999570846558,47.39774874523242,8.545605684770166,489.0290222167969,0,0
1731237661691638,0.020872384,0.00094539573,-0.0071799373,-0.15682034,0.23347326,-9.902463,47.3977485,8.5456054,489.274,0.07000000029802322,0.03999999910593033,0.009999999776482582,-0.699999988079071,47.39774880254582,8.545605745053154,489.3025817871094,0,0
1731237662091247,0.005958691,-0.005978848,-0.0034515043,-0.17717105,0.21072835,-9.846199,47.397748899999996,8.5456056,489.544,0.12999999523162842,0.10999999940395355,0.03999999910593033,-0.6699999570846558,47.39774902996762,8.545605873753273,489.56500244140625,0,0
1731237662491354,0.026198715,-0.0014514775,-0.0021199246,-0.14604641,0.1987573,-9.752826,47.397749499999996,8.5456057,489.8,0.1599999964237213,0.17000000178813934,0.05999999865889549,-0.6200000047683716,47.397749370627984,8.545606051479,489.8122863769531,0,0
1731237662892783,0.029394511,-0.008375686,-0.001587286,-0.14365223,0.20474282,-8.65269,47.397750099999996,8.545606099999999,490.015,0.17000000178813934,0.17000000178813934,0.03999999910593033,-0.44999998807907104,47.3977498831141,8.54560627238972,490.0128173828125,0,0
1731237663293330,0.01900818,-0.0062451656,-0.0026525469,-0.15921454,0.19995444,-10.088014,47.397750599999995,8.5456065,490.118,0.14999999105930328,0.1599999964237213,0.07000000029802322,-0.1599999964237213,47.39775044644932,8.545606520363648,490.1042175292969,0,0
1731237663693167,0.019008184,0.006271684,0.001608508,-0.16280587,0.20593996,-9.903662,47.397751,8.5456069,490.19,0.10999999940395355,0.07000000029802322,0.03999999910593033,-0.17999999225139618,47.3977509555266,8.545606781831319,490.1894226074219,0,0
1731237664093213,-0.0057592215,-0.013968331,-0.0007883373,-0.08499429,0.16763271,-9.927602,47.397751199999995,8.5456071,490.244,0.05999999865889549,0.029999999329447746,0.04999999701976776,-0.17999999225139618,47.397751209428016,8.54560702650338,490.26324462890625,0,0
1731237664493452,-0.0073571154,-0.0043809605,-0.0026525476,-0.14724354,0.14009944,-9.894085,47.397751199999995,8.5456073,490.312,0.03999999910593033,0.0,0.05999999865889549,-0.1599999964237213,47.39775126002181,8.545607231159265,490.326904296875,0,0
1731237664891202,-0.0020307924,0.004141163,-0.0018535977,-0.1484406,0.14847907,-9.967105,47.3977511,8.5456077,490.35900000000004,0.04999999701976776,-0.029999999329447746,0.019999999552965164,-0.14000000059604645,47.397751220131816,8.545607485438856,490.3793029785156,0,0
1731237665291001,-0.005226582,-0.0070441174,-0.0015872907,-0.098162375,0.11974868,-9.918023,47.3977509,8.545607799999999,490.406,0.05999999865889549,-0.05999999865889549,0.019999999552965164,-0.09999999403953552,47.39775110971061,8.545607640331191,490.4263610839844,0,0
1731237665694361,-0.010286591,-0.0049135936,-0.003451506,-0.13048413,0.14608492,-9.924011,47.397750699999996,8.545607799999999,490.452,0.05999999865889549,-0.05999999865889549,0.0,-0.07000000029802322,47.397750918169905,8.545607706974879,490.46197509765625,0,0
1731237666094288,-0.0012318377,-0.009440958,0.0029400995,-0.09097981,0.1520704,-9.914436,47.3977505,8.545607799999999,490.485,0.04999999701976776,-0.07000000029802322,-0.019999999552965164,-0.11999999731779099,47.39775070097867,8.545607719368476,490.490478515625,0,0
1731237666494307,-0.004161319,-0.008109381,-0.0002557053,-0.12090731,0.1400994,-9.921616,47.3977503,8.5456077,490.51300000000003,0.029999999329447746,-0.03999999910593033,-0.009999999776482582,-0.05999999865889549,47.39775049697367,8.54560765919969,490.51812744140625,0,0
1731237666993649,0.0054260585,-0.0017177912,-0.0007883384,-0.11731602,0.1329168,-9.935982,47.3977502,8.5456075,490.532,0.019999999552965164,0.0,-0.019999999552965164,-0.05999999865889549,47.39775033573307,8.545607589848053,490.54437255859375,0,0
1731237667392125,3.2848487,0.6707326,1.0247755,-0.049081273,0.06228769,-1.0211719,47.3977502,8.5456075,490.488,0.05999999865889549,-0.05999999865889549,-0.04999999701976776,0.8999999761581421,47.397749979318554,8.545607105899155,490.0999755859375,1,4
1731237667793208,3.4323485,1.8557588,1.6465348,-0.64643466,-0.8618741,-2.266157,47.3977497,8.5456069,489.40500000000003,0.32999998331069946,-0.25,-0.1899999976158142,4.529999732971191,47.397749155412306,8.545606058321077,488.3514099121094,1,4
1731237668192052,0.0014313166,-0.0033156888,-0.0013209693,-0.122104436,0.15925267,9.634224,47.3977484,8.545604599999999,488.098,0.0,0.0,0.009999999776482582,0.0,47.39774844766728,8.545600971829023,486.0039978027344,1,4
1731237668391364,0.0030292126,-0.0041146367,-0.00078833656,-0.12210442,0.13650775,9.660559,47.397748299999996,8.545604599999999,488.104,0.0,-0.009999999776482582,0.0,0.0,47.39774811463377,8.545598739991652,484.87591552734375,1,4
1731237668792414,0.00436079,-0.007310432,0.0021411378,-0.105344996,0.18199761,9.673727,47.3977484,8.5456045,488.112,0.0,-0.009999999776482582,-0.009999999776482582,0.0,47.39774764115502,8.54559491448514,482.8051452636719,1,4
1731237669191891,0.0032955306,-0.005446218,0.00027692705,-0.12449864,0.1700266,9.661757,47.3977484,8.545604599999999,488.104,0.0,0.0,0.0,0.0,47.39774796498737,8.545595429546088,481.2940368652344,1,4
1731237669592654,0.0024965808,-0.007576747,-0.0029188686,-0.113724716,0.16164687,9.707246,47.3977484,8.545604599999999,488.108,0.0,0.0,0.009999999776482582,0.009999999776482582,47.39774844757974,8.545598534958955,480.7306823730469,1,4
1731237669991879,0.0016976334,-0.006511482,-0.001320971,-0.11372468,0.15326715,9.644996,47.3977484,8.545604599999999,488.115,0.0,0.0,0.0,0.0,47.39774865217776,8.545601054367003,488.12261962890625,1,4
1731237670391216,0.0019639474,-0.008109379,-0.00025570663,-0.0957682,0.15446426,9.66415,47.3977484,8.5456047,488.105,0.0,0.0,0.009999999776482582,0.0,47.39774875412734,8.545602574401096,489.4360656738281,1,4
1731237670792921,0.0016976338,-0.0030493732,-0.0010546561,-0.11252757,0.18918017,9.692881,47.397748299999996,8.545604599999999,488.104,0.0,0.0,0.0,0.019999999552965164,47.3977487775423,8.545603497923832,489.8957824707031,1,4
1731237671192840,0.0030292089,-0.006511481,-0.00078833604,-0.16759421,0.15446426,9.658163,47.3977484,8.545604599999999,488.108,0.0,0.0,-0.009999999776482582,0.0,47.39774869352595,8.545603820120878,489.9629211425781,1,4
1731237671593050,0.002496584,-0.005446218,-0.0018536018,-0.090979785,0.17840625,9.662953,47.3977484,8.545604599999999,488.099,0.0,0.0,0.0,0.0,47.39774859501847,8.545603775187983,489.851318359375,1,4
1731237671993555,0.0027628988,-0.008109379,-0.0037178167,-0.101753704,0.17960338,9.6378145,47.3977484,8.5456045,488.108,0.0,0.0,0.0,-0.029999999329447746,47.39774853621194,8.545603745706932,489.7283020019531,1,4
