timestamp,gyro_rad[0],gyro_rad[1],gyro_rad[2],accelerometer_m_s2[0],accelerometer_m_s2[1],accelerometer_m_s2[2],latitude_deg,longitude_deg,altitude_msl_m,vel_m_s,vel_n_m_s,vel_e_m_s,vel_d_m_s,lat,lon,alt,motor_failure_flag,failed_motor
1731240478893115,0.001431321,-0.008375696,-0.0029188693,-0.122104436,0.13291678,-9.9934435,47.3977508,8.5456074,488.096,0.0,0.0,-0.009999999776482582,0.009999999776482582,47.39775078602734,8.545607447697904,488.1233215332031,0,0
1731240479282682,0.0032955275,-0.004114636,-0.0010546546,-0.16280583,0.1808008,-9.9383745,47.3977508,8.5456074,488.086,0.0,0.009999999776482582,0.0,0.0,47.39775081191313,8.54560744752355,488.1227722167969,0,0
1731240479693144,0.017942918,-0.008908319,-0.0023862435,-0.15442613,0.22150226,-10.058085,47.3977508,8.5456074,488.105,0.0,0.0,0.009999999776482582,0.029999999329447746,47.39775085239323,8.545607425578778,488.122802734375,0,0
1731240480090772,0.08718498,0.20254667,0.013859581,-0.093374,0.08144145,-10.603962,47.3977508,8.5456074,488.11,0.019999999552965164,-0.009999999776482582,-0.009999999776482582,-0.10999999940395355,47.39775078185907,8.545607423200284,488.1465148925781,0,0
1731240480489330,-0.08405619,-0.10318423,-0.0026525399,-0.08619142,0.1089748,-10.702127,47.3977503,8.545607,488.204,0.26999998092651367,-0.22999998927116394,-0.14000000059604645,-0.41999998688697815,47.397750303090326,8.545606871958954,488.26239013671875,0,0
1731240480889432,-0.04677189,-0.029680993,-0.0050493614,-0.071826175,0.10897477,-10.157445,47.397749399999995,8.5456062,488.41200000000003,0.25999999046325684,-0.2199999988079071,-0.12999999523162842,-0.5099999904632568,47.397749656640684,8.545606214362547,488.4635314941406,0,0
1731240481089823,-0.010020288,-0.018495707,-0.00611464,-0.08020587,0.10658058,-10.128715,47.397749,8.5456059,488.512,0.2199999988079071,-0.17999999225139618,-0.10999999940395355,-0.5699999928474426,47.39774935945161,8.545605969097691,488.57379150390625,0,0
1731240481491999,-0.010819228,-0.0054462072,-0.004250439,-0.12569572,0.1628443,-10.050904,47.3977485,8.5456054,488.76,0.09999999403953552,-0.09999999403953552,-0.03999999910593033,-0.6899999976158142,47.39774880502619,8.54560559611893,488.81353759765625,0,0
1731240481888866,0.013415542,0.0006790518,-0.0015872878,-0.124498636,0.18918054,-9.9707,47.3977484,8.5456053,489.036,0.009999999776482582,0.029999999329447746,0.0,-0.6699999570846558,47.39774861772198,8.54560553797921,489.0801696777344,0,0
1731240482288287,0.020073451,-0.0067777783,-0.0061146677,-0.14604643,0.21671385,-9.89528,47.3977486,8.5456054,489.312,0.10999999940395355,0.07000000029802322,0.029999999329447746,-0.699999988079071,47.397748777250605,8.545605664740176,489.3440246582031,0,0
1731240482687471,0.009953434,-0.008375694,-0.0029188658,-0.13646962,0.23227613,-9.803103,47.3977491,8.5456057,489.58,0.1599999964237213,0.12999999523162842,0.05999999865889549,-0.6599999666213989,47.39774910878348,8.545605882943109,489.6046142578125,0,0
1731240483090248,0.013415541,0.0001464201,-0.0015872887,-0.1340754,0.24664134,-9.746839,47.3977497,8.5456059,489.833,0.17000000178813934,0.17999999225139618,0.05999999865889549,-0.6100000143051147,47.397749537461884,8.54560617324945,489.85308837890625,0,0
1731240483491820,0.020872392,-0.005446222,-0.0015872832,-0.11731601,0.21551672,-8.949571,47.3977503,8.5456063,490.041,0.1599999964237213,0.17000000178813934,0.03999999910593033,-0.4099999964237213,47.397750091479566,8.545606470091103,490.0387878417969,0,0
1731240483891928,0.018209238,-0.015299907,-0.0021199228,-0.15203193,0.21072833,-10.10956,47.3977508,8.5456067,490.132,0.12999999523162842,0.14000000059604645,0.05999999865889549,-0.1599999964237213,47.39775065516282,8.545606629965153,490.1228942871094,0,0
1731240484290120,0.012882908,0.0025432666,0.00214114,-0.12449862,0.18918051,-9.900068,47.397751199999995,8.545607,490.204,0.08999999612569809,0.05999999865889549,0.03999999910593033,-0.17999999225139618,47.39775107453551,8.545606893275318,490.2041015625,0,0
1731240484689214,-0.007889754,-0.00890832,0.0013421891,-0.13766673,0.147282,-9.904859,47.397751299999996,8.5456072,490.25600000000003,0.04999999701976776,0.009999999776482582,0.04999999701976776,-0.17000000178813934,47.397751288679814,8.545607111311057,490.2772216796875,0,0
1731240485088315,-0.010020278,-0.0014514747,-0.000522011,-0.14365223,0.14488782,-9.878522,47.397751199999995,8.5456075,490.322,0.04999999701976776,-0.009999999776482582,0.05999999865889549,-0.14999999105930328,47.39775128538911,8.54560732167651,490.3367004394531,0,0
1731240485488412,-0.0062918505,0.0033422173,1.0605261e-05,-0.102950804,0.11496028,-9.950348,47.3977511,8.545607799999999,490.368,0.05999999865889549,-0.04999999701976776,0.019999999552965164,-0.12999999523162842,47.39775120178884,8.54560759430087,490.388671875,0,0
1731240485889218,-0.010020271,-0.010239915,-0.001054671,-0.08379719,0.1556617,-9.884507,47.3977509,8.545607799999999,490.414,0.05999999865889549,-0.05999999865889549,0.009999999776482582,-0.08999999612569809,47.397751048121684,8.54560773741059,490.4319152832031,0,0
1731240486289109,-0.007357114,-0.009174645,-0.0010546548,-0.106542096,0.14129649,-9.956332,47.397750699999996,8.545607799999999,490.46000000000004,0.05999999865889549,-0.05999999865889549,-0.009999999776482582,-0.07999999821186066,47.39775083768479,8.545607763377092,490.466796875,0,0
1731240486689824,-0.0020307966,-0.012636751,-0.000522027,-0.063446485,0.15326752,-9.926407,47.3977504,8.545607799999999,490.493,0.04999999701976776,-0.05999999865889549,-0.019999999552965164,-0.11999999731779099,47.39775063848637,8.545607711641885,490.4951477050781,0,0
1731240487090212,0.0016976325,-0.008109379,-0.0010546474,-0.0909798,0.17242116,-9.933588,47.3977503,8.5456077,490.52,0.029999999329447746,-0.029999999329447746,-0.019999999552965164,-0.05999999865889549,47.39775046215546,8.545607634357456,490.5241394042969,0,0
1731240487490396,-0.0001665731,-0.012903071,0.0016085022,-0.08499428,0.16045009,-9.92401,47.3977502,8.5456075,490.539,0.019999999552965164,0.0,-0.019999999552965164,-0.05999999865889549,47.3977503553499,8.545607548623794,490.5456848144531,0,0
1731240487891906,0.005159745,-0.014767282,-0.0018536027,-0.0897827,0.17720953,-9.921617,47.3977502,8.5456075,490.562,0.019999999552965164,0.0,-0.019999999552965164,-0.04999999701976776,47.3977503589128,8.545607457298365,490.56195068359375,0,0
1731240488291441,-0.00282974,-0.0017177965,0.000276925,-0.094571084,0.18080083,-9.941966,47.3977503,8.5456075,490.584,0.019999999552965164,0.03999999910593033,-0.009999999776482582,-0.029999999329447746,47.39775038493578,8.54560739149361,490.5754089355469,0,0
1731240488691435,0.015279755,-0.0070441123,-0.00052202557,-0.11372471,0.17960373,-9.9288,47.3977504,8.5456074,490.595,0.019999999552965164,0.04999999701976776,-0.009999999776482582,-0.07000000029802322,47.39775046896652,8.545607357212237,490.5863952636719,0,0
1731240489091582,0.010219755,-0.011571486,1.0603953e-05,-0.1005566,0.16164722,-9.904858,47.3977505,8.5456074,490.624,0.019999999552965164,0.0,0.0,-0.04999999701976776,47.39775062403972,8.545607339263913,490.59912109375,0,0
1731240489491769,-0.009487642,-0.0073104305,0.0010758743,-0.13646959,0.13171968,-9.913238,47.3977505,8.5456074,490.623,0.009999999776482582,0.019999999552965164,0.0,-0.04999999701976776,47.39775066689725,8.545607335068238,490.6092834472656,0,0
1731240489888399,0.0054260558,-0.010239908,0.0005432434,-0.1185131,0.18439211,-9.941968,47.3977505,8.5456075,490.63800000000003,0.009999999776482582,0.0,0.019999999552965164,-0.04999999701976776,47.39775067059295,8.545607342287314,490.6169738769531,0,0
1731240490288521,-0.0017644754,-0.001185161,-0.0042504505,-0.110133395,0.17242113,-9.94077,47.397750599999995,8.5456076,490.652,0.019999999552965164,0.0,0.019999999552965164,-0.019999999552965164,47.39775066753425,8.545607427963711,490.62188720703125,0,0
1731240490689501,0.0038281612,-0.0019841082,-0.0015872859,-0.14724351,0.1784066,-9.941966,47.397750599999995,8.545607799999999,490.648,0.019999999552965164,0.0,0.019999999552965164,-0.019999999552965164,47.39775065409231,8.545607534907854,490.6260070800781,0,0
1731240491089457,0.0038281626,-0.0022504237,-0.0031851833,-0.12449862,0.17840663,-9.959924,47.397750599999995,8.545607799999999,490.652,0.019999999552965164,0.0,0.019999999552965164,0.0,47.3977506492375,8.545607632324142,490.6282958984375,0,0
1731240491489597,0.0016976326,-0.0017177928,-0.0015872852,-0.13407543,0.1604501,-9.9144335,47.397750599999995,8.545608,490.659,0.019999999552965164,0.0,0.03999999910593033,0.029999999329447746,47.39775064625746,8.545607727639473,490.6290588378906,0,0
1731240491890546,0.0014313156,0.009467484,-0.0029188704,-0.119710185,0.17720951,-9.991048,47.397750699999996,8.5456082,490.682,0.029999999329447746,0.03999999910593033,0.03999999910593033,-0.029999999329447746,47.397750649599615,8.545607918257287,490.62860107421875,0,0
1731240492290721,0.009154484,-0.0025167414,-0.0021199177,-0.1029508,0.17242113,-9.9144335,47.397750699999996,8.5456082,490.693,0.019999999552965164,0.029999999329447746,0.029999999329447746,-0.029999999329447746,47.397750744923954,8.545608097286442,490.6338195800781,0,0
1731240492691464,0.0035618457,-0.0019841068,-0.003717816,-0.08738849,0.19636309,-9.951543,47.3977508,8.5456082,490.709,0.009999999776482582,0.029999999329447746,0.019999999552965164,-0.03999999910593033,47.397750851626064,8.545608243940313,490.6405944824219,0,0
1731240493091528,0.008089218,-0.00011989349,-0.0015872834,-0.119710214,0.15326747,-9.906054,47.3977508,8.5456082,490.72200000000004,0.009999999776482582,-0.009999999776482582,-0.029999999329447746,-0.08999999612569809,47.397750931675915,8.545608296448284,490.6464538574219,0,0
1731240493488016,-0.0033623665,-0.015832549,-0.00052202353,-0.09337399,0.14847907,-9.894084,47.3977509,8.545608,490.732,0.029999999329447746,0.0,-0.03999999910593033,-0.019999999552965164,47.39775091524137,8.54560816873634,490.657470703125,0,0
1731240493888376,0.0046271128,-0.014500965,-0.0021199223,-0.0921769,0.13770518,-9.918025,47.3977508,8.5456079,490.735,0.029999999329447746,0.0,-0.03999999910593033,0.009999999776482582,47.397750885721415,8.545607936910372,490.65985107421875,0,0
1731240494289147,0.0014313159,-0.0067777983,-0.0021199188,-0.07781169,0.17361823,-9.983867,47.3977508,8.545607799999999,490.754,0.019999999552965164,-0.009999999776482582,0.0,-0.009999999776482582,47.397750866354414,8.545607731294117,490.6588134765625,0,0
1731240494689441,1.9524676,1.3687371,0.51853144,-0.107739195,0.13171957,-3.093353,47.3977508,8.5456077,490.76800000000003,0.009999999776482582,-0.009999999776482582,-0.009999999776482582,-0.05999999865889549,47.397750798602395,8.545607651039488,490.6404113769531,1,4
1731240495089721,4.423612,0.3378294,1.3004284,-0.16879134,-0.124460064,-0.7362618,47.3977505,8.5456074,490.28700000000003,0.17999999225139618,-0.11999999731779099,-0.09999999403953552,2.809999942779541,47.39775026719686,8.545607108125543,489.77740478515625,1,4
1731240495490401,0.00036605448,-0.0030493713,-0.0055820313,-0.110133395,0.1939686,9.662953,47.397749399999995,8.5456065,488.40000000000003,0.550000011920929,-0.4599999785423279,-0.2800000011920929,6.71999979019165,47.39774916486917,8.545604062068458,487.5885314941406,1,4
1731240495891392,0.002496582,-0.0054462166,-0.0037178178,-0.14006093,0.18080048,9.686895,47.397749,8.545605199999999,488.105,0.0,0.0,0.0,0.03999999910593033,47.397746756499394,8.545592123708884,484.92938232421875,1,4
1731240496280751,0.0016976295,-0.0049135843,0.0008095587,-0.06943198,0.17601208,9.70964,47.397749,8.5456051,488.09700000000004,0.0,0.0,0.009999999776482582,0.0,47.397745050494734,8.545581260986975,482.6213073730469,1,4
1731240496690864,0.0022302635,-0.006511481,-0.0010546568,-0.09696528,0.17242077,9.713231,47.397749,8.5456051,488.092,0.0,0.0,0.019999999552965164,0.009999999776482582,47.39774371831087,8.545571327001195,480.5457763671875,1,4
1731240497090442,0.0011649992,-0.0073104305,0.0008095582,-0.1017537,0.15566137,9.7096405,47.397748899999996,8.5456051,488.10900000000004,0.0,-0.009999999776482582,-0.009999999776482582,-0.019999999552965164,47.39774445165739,8.545573483196959,487.1830749511719,1,4
1731240497490426,0.0030292138,-0.0054462175,1.0608832e-05,-0.11731599,0.1927715,9.71802,47.397748899999996,8.5456051,488.098,0.0,0.009999999776482582,0.0,-0.009999999776482582,47.3977461366227,8.545582639835137,488.30029296875,1,4
1731240497890474,0.001431314,-0.004114636,0.00027692557,-0.11851313,0.20953092,9.666545,47.397748899999996,8.545605199999999,488.107,0.0,0.0,0.0,-0.03999999910593033,47.39774733384894,8.545589990931829,489.3228454589844,1,4
1731240498290698,0.0027628946,-0.007576746,-0.0013209725,-0.11372471,0.18558888,9.710837,47.397748899999996,8.5456051,488.113,0.0,-0.019999999552965164,0.0,0.07000000029802322,47.397747945936466,8.545594303529544,489.61444091796875,1,4
1731240498690903,0.0019639472,-0.0067777983,-0.00025570887,-0.114921786,0.1951657,9.691683,47.397748899999996,8.5456051,488.1,0.0,0.0,0.0,0.009999999776482582,47.39774817364435,8.545596729214822,489.6484680175781,1,4
1731240499089280,0.003561848,-0.0051799007,-0.00025570387,-0.1340754,0.17720915,9.704851,47.397748899999996,8.545605,488.1,0.0,0.0,0.019999999552965164,0.0,47.397748186049434,8.545597859751506,489.5534362792969,1,4
1731240499488340,0.0027628967,-0.00597885,-0.0002557073,-0.15203194,0.17481495,9.707246,47.397749,8.5456051,488.096,0.0,-0.009999999776482582,-0.009999999776482582,-0.009999999776482582,47.39774837649826,8.545598855382556,489.51220703125,1,4
