timestamp,gyro_rad[0],gyro_rad[1],gyro_rad[2],accelerometer_m_s2[0],accelerometer_m_s2[1],accelerometer_m_s2[2],latitude_deg,longitude_deg,altitude_msl_m,vel_m_s,vel_n_m_s,vel_e_m_s,vel_d_m_s,lat,lon,alt,motor_failure_flag,failed_motor
1731238390550810,0.006757632,-0.0073104342,0.0016085044,-0.14724353,0.1484791,-9.970697,47.3977508,8.5456074,488.092,0.0,-0.019999999552965164,0.009999999776482582,-0.029999999329447746,47.397750809048844,8.545607321095842,488.130859375,0,0
1731238390850384,0.0022302635,-0.0035820042,-0.0010546555,-0.13407542,0.16643561,-9.958727,47.3977508,8.5456075,488.091,0.0,0.019999999552965164,0.009999999776482582,0.0,47.39775076243376,8.545607330625758,488.1354064941406,0,0
1731238391251030,0.0032955287,-0.007044114,-0.0013209718,-0.1328783,0.17840661,-9.94077,47.3977508,8.5456074,488.096,0.0,0.0,0.0,0.019999999552965164,47.39775078556252,8.545607396659614,488.1391906738281,0,0
1731238391651346,0.1534978,-0.005712545,-0.00052205066,-0.141258,0.18439211,-10.269972,47.3977508,8.5456074,488.09700000000004,0.0,0.009999999776482582,-0.019999999552965164,0.009999999776482582,47.39775082032779,8.545607443138733,488.1388854980469,0,0
1731238392051814,-0.16927727,-0.08400954,0.0013425497,-0.0897827,0.09341247,-10.770361,47.397750699999996,8.5456074,488.136,0.07000000029802322,-0.05999999865889549,-0.009999999776482582,-0.09999999403953552,47.39775066010977,8.545607251729477,488.1790466308594,0,0
1731238392452346,-0.040912967,-0.021957785,-0.0039841607,-0.12449862,0.08862407,-10.010202,47.397749999999995,8.5456069,488.248,0.2800000011920929,-0.25,-0.14000000059604645,-0.44999998807907104,47.39775011734726,8.545606684364424,488.3263854980469,0,0
1731238392848944,-0.037717175,-0.025153587,-0.005848331,-0.11133052,0.10897478,-10.21371,47.3977492,8.545606099999999,488.45,0.23999999463558197,-0.19999998807907104,-0.10999999940395355,-0.5399999618530273,47.39774945027002,8.545606175465373,488.5173645019531,0,0
1731238393249859,-0.014547644,-0.0073104375,-0.0058483523,-0.1125276,0.119748674,-10.078437,47.3977486,8.5456056,488.69100000000003,0.12999999523162842,-0.12999999523162842,-0.04999999701976776,-0.6699999570846558,47.397748922722876,8.545605816856032,488.7511291503906,0,0
1731238393650167,-0.004693955,-0.0025167412,-0.0037178113,-0.12210442,0.18080083,-9.947953,47.3977484,8.5456054,488.962,0.019999999552965164,0.0,-0.009999999776482582,-0.6599999666213989,47.39774862405312,8.54560570742628,489.0141296386719,0,0
1731238394050785,0.023269234,-0.00757676,-0.0026525424,-0.14963773,0.21431965,-9.903661,47.3977485,8.5456054,489.238,0.07999999821186066,0.03999999910593033,0.009999999776482582,-0.699999988079071,47.397748696484506,8.5456057780037,489.28021240234375,0,0
1731238394450868,0.008089227,-0.015033595,-0.003984132,-0.12928702,0.23107906,-9.82106,47.397748899999996,8.5456056,489.50800000000004,0.14000000059604645,0.12999999523162842,0.03999999910593033,-0.6699999570846558,47.39774892893863,8.54560588913781,489.54058837890625,0,0
1731238394851644,0.020606074,0.0009453767,-0.002918866,-0.14006092,0.25980946,-9.761205,47.397749499999996,8.5456057,489.766,0.17999999225139618,0.17999999225139618,0.04999999701976776,-0.6200000047683716,47.397749354276435,8.545606077659933,489.78955078125,0,0
1731238395251480,0.02566608,-0.01290307,-0.00052202336,-0.12449862,0.24065582,-8.683813,47.3977502,8.545606099999999,489.985,0.17999999225139618,0.17999999225139618,0.03999999910593033,-0.5,47.3977499303394,8.545606315028008,489.9981384277344,0,0
1731238395639926,0.020339765,-0.007843057,-0.0021199107,-0.15322904,0.22030513,-10.007808,47.3977508,8.5456065,490.105,0.14999999105930328,0.1599999964237213,0.05999999865889549,-0.17000000178813934,47.39775052018581,8.545606479758943,490.09063720703125,0,0
1731238396049352,0.012083958,0.0041411673,-0.00052202283,-0.12569574,0.20234863,-9.876126,47.397751199999995,8.5456069,490.17400000000004,0.10999999940395355,0.07999999821186066,0.04999999701976776,-0.17000000178813934,47.39775103903002,8.545606750140877,490.1731262207031,0,0
1731238396449473,-0.004161318,-0.0067778025,-0.0005220251,-0.1280899,0.1460849,-9.884507,47.3977514,8.5456071,490.22700000000003,0.07000000029802322,0.029999999329447746,0.05999999865889549,-0.17999999225139618,47.39775130211824,8.545607017900927,490.2475891113281,0,0
1731238396850090,-0.0036286893,0.00014641903,0.00027692784,-0.11372471,0.16164719,-9.951545,47.397751299999996,8.5456074,490.294,0.05999999865889549,-0.009999999776482582,0.07000000029802322,-0.1599999964237213,47.39775136350642,8.545607284326154,490.3096923828125,0,0
1731238397250531,-0.010552908,0.0017443112,0.00027693834,-0.124498606,0.16284432,-9.886901,47.397751199999995,8.545607799999999,490.342,0.05999999865889549,-0.04999999701976776,0.029999999329447746,-0.14000000059604645,47.39775129035262,8.545607599260409,490.3636779785156,0,0
1731238397650680,-0.0060255337,-0.014500969,-0.002918848,-0.11611893,0.1269313,-9.878521,47.397751,8.5456079,490.389,0.07000000029802322,-0.07000000029802322,0.019999999552965164,-0.09999999403953552,47.39775111847771,8.54560777383748,490.409912109375,0,0
1731238398052152,-0.008422377,-0.003049375,-0.0034515099,-0.107739195,0.12573418,-9.913238,47.397750699999996,8.545608,490.43600000000004,0.07000000029802322,-0.07000000029802322,0.0,-0.07999999821186066,47.39775088160846,8.545607846070732,490.4453430175781,0,0
1731238398452128,-0.005492903,-0.007576748,-0.0007883383,-0.09097982,0.13531101,-9.912041,47.3977505,8.5456079,490.469,0.05999999865889549,-0.07000000029802322,-0.019999999552965164,-0.12999999523162842,47.39775065224382,8.5456078435921,490.47528076171875,0,0
1731238398852097,-0.00069921324,-0.009973592,-0.0005220249,-0.08140298,0.1317197,-9.884507,47.3977503,8.545607799999999,490.497,0.03999999910593033,-0.03999999910593033,-0.019999999552965164,-0.05999999865889549,47.39775044422303,8.545607769277275,490.5057678222656,0,0
1731238399248512,0.0014313171,-0.011837804,0.00054324407,-0.074220374,0.17242113,-9.922814,47.3977502,8.5456076,490.515,0.029999999329447746,0.0,-0.019999999552965164,-0.05999999865889549,47.39775032172883,8.545607674692567,490.5267639160156,0,0
1731238399650844,0.008621847,-0.015299912,-0.00025570748,-0.07781165,0.14847907,-9.9276,47.3977502,8.5456076,490.538,0.019999999552965164,-0.009999999776482582,-0.029999999329447746,-0.04999999701976776,47.39775032235036,8.545607578044528,490.5430603027344,0,0
1731238400051543,-0.0030960566,-0.0065114824,0.00080956746,-0.08619141,0.18918055,-9.938378,47.3977502,8.5456075,490.559,0.019999999552965164,0.029999999329447746,-0.019999999552965164,-0.029999999329447746,47.397750326637826,8.54560746502881,490.5574645996094,0,0
1731238400450657,0.0102197435,-0.00917465,0.0010758676,-0.12210443,0.1556617,-9.971894,47.3977503,8.5456073,490.57,0.019999999552965164,0.03999999910593033,-0.019999999552965164,-0.07000000029802322,47.39775038995748,8.54560738737356,490.5678405761719,0,0
1731238400850967,0.009420799,-0.01290307,0.0005432409,-0.14963773,0.1341139,-9.910843,47.3977504,8.5456073,490.599,0.019999999552965164,0.0,0.0,-0.04999999701976776,47.397750515140046,8.545607307653384,490.5806884765625,0,0
1731238401251603,-0.010552907,-0.00731043,0.00134219,-0.14365223,0.13770519,-9.939572,47.3977505,8.5456073,490.6,0.009999999776482582,0.019999999552965164,-0.009999999776482582,-0.04999999701976776,47.39775054930882,8.545607291280465,490.5914611816406,0,0
1731238401651642,-0.0006992058,-0.012903072,-0.0021199302,-0.12808993,0.16404141,-9.919224,47.3977505,8.5456074,490.616,0.009999999776482582,0.009999999776482582,0.009999999776482582,-0.04999999701976776,47.39775057112047,8.545607274142093,490.5990295410156,0,0
1731238402048956,-0.00016657822,-0.0017177932,-0.003984133,-0.129287,0.1736182,-9.92042,47.397750599999995,8.5456075,490.63,0.019999999552965164,0.0,0.019999999552965164,-0.019999999552965164,47.397750593563806,8.545607301923908,490.60491943359375,0,0
1731238402449290,0.0014313157,-0.0019841066,0.000276927,-0.120907314,0.19516602,-9.926406,47.397750599999995,8.5456076,490.627,0.029999999329447746,0.0,0.019999999552965164,-0.029999999329447746,47.39775060918267,8.545607411386817,490.60882568359375,0,0
1731238402849743,0.0016976331,-0.0025167414,-0.005315712,-0.15083483,0.17242111,-9.927601,47.397750599999995,8.5456077,490.63100000000003,0.029999999329447746,0.0,0.029999999329447746,0.0,47.39775060729623,8.545607518786609,490.6123352050781,0,0
1731238403249920,-0.00016658053,-0.0019841066,-0.0015872836,-0.13766672,0.17242111,-9.921617,47.397750699999996,8.5456079,490.639,0.029999999329447746,0.009999999776482582,0.04999999701976776,0.029999999329447746,47.39775060965687,8.545607644414792,490.6130676269531,0,0
1731238403650561,0.007290266,0.006538007,-0.003984134,-0.12689279,0.1867863,-9.9778805,47.397750699999996,8.545608099999999,490.66200000000003,0.029999999329447746,0.03999999910593033,0.04999999701976776,-0.029999999329447746,47.39775064891403,8.54560788161003,490.6122131347656,0,0
1731238404049455,0.007556586,-0.00038621298,-0.0029188679,-0.1029508,0.17122403,-9.92042,47.3977508,8.5456082,490.673,0.019999999552965164,0.029999999329447746,0.029999999329447746,-0.029999999329447746,47.397750757388046,8.545608120413434,490.61798095703125,0,0
1731238404451788,0.0014313154,-0.0033156876,-0.0029188674,-0.0909798,0.22629064,-9.956332,47.3977508,8.5456082,490.689,0.0,0.019999999552965164,0.019999999552965164,-0.03999999910593033,47.39775085947978,8.545608245052629,490.6237487792969,0,0
1731238404851892,0.00462711,-0.0027830568,-0.0031851835,-0.11492184,0.15326752,-9.934787,47.3977509,8.5456082,490.704,0.009999999776482582,-0.019999999552965164,-0.019999999552965164,-0.08999999612569809,47.39775092039257,8.54560830228663,490.63079833984375,0,0
1731238405250506,-0.002030787,-0.0131693855,-0.0018536046,-0.10055659,0.15087329,-9.919221,47.3977508,8.545608099999999,490.714,0.029999999329447746,-0.009999999776482582,-0.029999999329447746,-0.009999999776482582,47.39775088631577,8.545608201566072,490.6395263671875,0,0
1731238405650157,0.0003660477,-0.010239905,-0.0005220259,-0.070629075,0.13291678,-9.912038,47.3977508,8.545608,490.718,0.029999999329447746,-0.009999999776482582,-0.03999999910593033,0.0,47.397750818830936,8.54560803304947,490.6443176269531,0,0
1731238406049526,0.000632365,-0.0075767445,-0.00025570576,-0.059855167,0.1628443,-9.931193,47.397750699999996,8.545607799999999,490.737,0.029999999329447746,-0.019999999552965164,-0.009999999776482582,-0.009999999776482582,47.39775077455722,8.545607840058022,490.64422607421875,0,0
1731238406449090,-1.3722287,0.8960318,-0.2508572,-0.29089555,-0.124459945,-6.7900004,47.397750699999996,8.5456077,490.752,0.009999999776482582,-0.009999999776482582,-0.019999999552965164,-0.05999999865889549,47.39775072692177,8.545607728816673,490.6410217285156,0,0
1731238406849433,-3.983194,0.42705724,-1.1885448,-0.09217691,0.29452527,-0.9158269,47.3977508,8.5456075,490.445,0.11999999731779099,0.10999999940395355,-0.07999999821186066,2.2100000381469727,47.39775097967173,8.545607214292835,489.96405029296875,1,2
1731238407250028,-0.2750529,0.097690575,0.22294241,-23.428465,33.39077,-13.360888,47.3977517,8.5456066,488.81600000000003,0.4699999988079071,0.3999999761581421,-0.22999998927116394,5.980000019073486,47.39775176283569,8.545606110661002,487.961181640625,1,2
1731238407651049,0.0011649956,-0.006777797,-0.0015872882,-0.14604646,0.17720918,9.668939,47.3977521,8.5456057,488.105,0.0,0.0,0.0,0.03999999910593033,47.397756462397176,8.545602416508824,485.4249572753906,1,2
1731238408049597,0.0046271095,-0.00731043,-0.0007883421,-0.09337399,0.18080047,9.680908,47.3977521,8.5456057,488.09700000000004,0.0,0.0,0.009999999776482582,0.0,47.397761173915306,8.545599424373643,483.058349609375,1,2
1731238408449605,0.0022302645,-0.006245166,-0.0010546545,-0.10654208,0.19755988,9.712034,47.3977521,8.5456056,488.092,0.0,0.0,0.019999999552965164,0.009999999776482582,47.39776232750748,8.545598457613028,481.24249267578125,1,2
1731238408849304,0.0016976387,-0.00864201,-0.001587284,-0.09935949,0.16643526,9.697667,47.3977521,8.5456056,488.10900000000004,0.0,-0.009999999776482582,-0.009999999776482582,-0.019999999552965164,47.397760575461675,8.54559966937732,487.2920837402344,1,2
1731238409249418,0.002230266,-0.0054462175,-0.0007883396,-0.1005566,0.2047425,9.726398,47.3977521,8.5456056,488.098,0.0,0.009999999776482582,0.0,-0.009999999776482582,47.39775770778259,8.545601854546025,489.1954040527344,1,2
1731238409649481,0.0014313138,-0.0025167386,0.0018748218,-0.11971022,0.22150189,9.666545,47.3977521,8.5456057,488.107,0.0,0.0,0.0,-0.03999999910593033,47.397755892093016,8.545603186206554,489.6884765625,1,2
1731238410049748,0.0024965778,-0.0070441137,1.0609271e-05,-0.11372471,0.1975599,9.713231,47.3977521,8.5456057,488.113,0.0,-0.019999999552965164,0.0,0.07000000029802322,47.39775479337817,8.545604001990206,489.81793212890625,1,2
1731238410450428,-0.0001665852,-0.0049135853,0.0016084998,-0.11851311,0.2143193,9.704852,47.3977521,8.5456056,488.1,0.0,0.0,0.0,0.009999999776482582,47.39775413165201,8.545604381357576,489.7715759277344,1,2
1731238410849005,0.003561848,-0.005179902,-0.0002557039,-0.14006095,0.1808005,9.704853,47.397752,8.5456056,488.1,0.0,0.0,0.019999999552965164,0.0,47.3977538685316,8.545604497120346,489.66168212890625,1,2
1731238411250042,0.0016976371,-0.0062451675,-0.0026525527,-0.13766669,0.19277146,9.702457,47.3977521,8.5456056,488.096,0.0,-0.009999999776482582,-0.009999999776482582,-0.009999999776482582,47.39775356045239,8.54560477855702,489.6195983886719,1,2
