timestamp,gyro_rad[0],gyro_rad[1],gyro_rad[2],accelerometer_m_s2[0],accelerometer_m_s2[1],accelerometer_m_s2[2],latitude_deg,longitude_deg,altitude_msl_m,vel_m_s,vel_n_m_s,vel_e_m_s,vel_d_m_s,lat,lon,alt,motor_failure_flag,failed_motor
1731239137409722,0.0024965813,-0.0051799016,-0.0037178164,-0.15682036,0.16763273,-9.982669,47.3977508,8.5456074,488.092,0.0,-0.019999999552965164,0.009999999776482582,-0.029999999329447746,47.397750777175965,8.545607323412858,488.14825439453125,0,0
1731239137509467,0.004360793,-0.006777798,-0.0031851814,-0.14724351,0.1760124,-9.949149,47.3977508,8.5456075,488.091,0.0,0.019999999552965164,0.009999999776482582,0.0,47.39775076042511,8.545607330399331,488.1494445800781,0,0
1731239137906255,0.0032955315,-0.008109378,-0.0029188672,-0.0993595,0.18080083,-9.987457,47.3977508,8.5456074,488.096,0.0,0.0,0.0,0.019999999552965164,47.39775078426103,8.54560739930706,488.14984130859375,0,0
1731239138308209,0.19983682,0.017190713,0.0013424247,-0.18555075,0.12094579,-10.334617,47.3977508,8.5456074,488.09700000000004,0.0,0.009999999776482582,-0.019999999552965164,0.009999999776482582,47.39775081716254,8.54560744734444,488.1485900878906,0,0
1731239138708562,-0.1940446,-0.15964337,-0.0010544161,-0.1017537,0.110171884,-10.850567,47.397750699999996,8.5456074,488.145,0.10999999940395355,-0.08999999612569809,-0.03999999910593033,-0.14000000059604645,47.397750610322504,8.545607197005488,488.1952209472656,0,0
1731239139109846,-0.035053995,-0.009440956,-0.0039841016,-0.11971023,0.08982116,-9.892886,47.3977499,8.5456067,488.277,0.2800000011920929,-0.25,-0.14000000059604645,-0.5,47.397750083630434,8.545606584821565,488.3488464355469,0,0
1731239139507066,-0.037184544,-0.02728412,-0.0061146156,-0.07661459,0.09700377,-10.149067,47.397749,8.545606,488.488,0.23999999463558197,-0.19999998807907104,-0.10999999940395355,-0.5699999928474426,47.39774945101284,8.545606092138442,488.5533752441406,0,0
1731239139908658,-0.01135186,-0.0041146255,-0.006114663,-0.086191386,0.1616472,-10.050903,47.3977485,8.545605499999999,488.738,0.14000000059604645,-0.12999999523162842,-0.04999999701976776,-0.6899999976158142,47.397748883249875,8.545605737028684,488.7952880859375,0,0
1731239140309867,-0.0009655278,-0.0025167407,-0.0021199225,-0.108936295,0.16763271,-9.988655,47.397748299999996,8.545605199999999,489.01300000000003,0.019999999552965164,0.0,-0.019999999552965164,-0.6699999570846558,47.397748600416136,8.545605633514583,489.061279296875,0,0
1731239140709266,0.014747127,-0.012903063,-0.0077125593,-0.14245513,0.20115153,-9.910843,47.397748299999996,8.545605199999999,489.291,0.07000000029802322,0.029999999329447746,0.0,-0.699999988079071,47.397748622307645,8.545605636738584,489.3233947753906,0,0
1731239141109544,0.0030292124,-0.016098866,-0.0029188686,-0.11492183,0.22509357,-9.785148,47.3977487,8.5456053,489.56100000000004,0.12999999523162842,0.11999999731779099,0.029999999329447746,-0.6699999570846558,47.39774884626329,8.545605705014951,489.5943908691406,0,0
1731239141510993,0.020872392,0.0012116837,-0.0005220261,-0.13048412,0.24544425,-9.740854,47.3977493,8.545605499999999,489.81600000000003,0.17000000178813934,0.17999999225139618,0.04999999701976776,-0.6100000143051147,47.39774921973974,8.545605827025437,489.8406066894531,0,0
1731239141910285,0.020872392,-0.006511488,-0.0010546531,-0.11851311,0.22030513,-8.932813,47.3977499,8.545605799999999,490.026,0.17000000178813934,0.17999999225139618,0.03999999910593033,-0.429999977350235,47.39774978367848,8.545606067977525,490.0290222167969,0,0
1731239142310322,0.01954081,-0.0065114847,-0.0015872853,-0.15562324,0.22389644,-10.1347,47.3977505,8.5456062,490.12100000000004,0.14999999105930328,0.1599999964237213,0.07000000029802322,-0.1599999964237213,47.3977503711182,8.545606244948676,490.1145935058594,0,0
1731239142710557,0.012882906,0.006804323,0.0037390376,-0.13407542,0.19396892,-9.941966,47.3977509,8.5456066,490.193,0.11999999731779099,0.07999999821186066,0.05999999865889549,-0.17000000178813934,47.39775088748117,8.545606540633969,490.1993103027344,0,0
1731239143109064,-0.00682449,-0.007843054,0.0026737703,-0.14604646,0.1556617,-9.912041,47.3977511,8.545607,490.244,0.07999999821186066,0.029999999329447746,0.07000000029802322,-0.17000000178813934,47.39775114187838,8.54560685859186,490.2720947265625,0,0
1731239143508897,-0.007889747,0.0017443186,-0.00025569825,-0.15203194,0.1496762,-9.900069,47.3977511,8.5456073,490.31,0.05999999865889549,0.0,0.07999999821186066,-0.14999999105930328,47.39775118918845,8.54560718263309,490.3319396972656,0,0
1731239143908917,-0.007357116,0.0022769528,1.0605243e-05,-0.10893631,0.11974868,-9.909646,47.397751,8.5456077,490.357,0.05999999865889549,-0.029999999329447746,0.03999999910593033,-0.14000000059604645,47.397751139196394,8.54560752724131,490.383544921875,0,0
1731239144309551,-0.0060255304,-0.009174648,-0.0015872981,-0.08499429,0.1568588,-9.880917,47.3977509,8.5456079,490.403,0.04999999701976776,-0.04999999701976776,0.019999999552965164,-0.09999999403953552,47.3977510225332,8.545607754899637,490.42950439453125,0,0
1731239144711124,-0.004960267,-0.01023991,-0.0015872855,-0.110133395,0.14369069,-9.955135,47.397750699999996,8.5456079,490.449,0.04999999701976776,-0.07000000029802322,0.0,-0.04999999701976776,47.39775085650919,8.54560783293097,490.4637145996094,0,0
1731239144908880,-0.00043289224,-0.010239909,0.0008095536,-0.12210442,0.17122401,-9.868944,47.397750599999995,8.5456079,490.469,0.04999999701976776,-0.07000000029802322,-0.009999999776482582,-0.08999999612569809,47.39775075568525,8.545607833937469,490.47869873046875,0,0
1731239145306784,-0.0041613225,-0.008109379,-0.00078833976,-0.088585615,0.1460849,-9.909648,47.3977504,8.545607799999999,490.48900000000003,0.03999999910593033,-0.019999999552965164,-0.019999999552965164,-0.08999999612569809,47.397750478719615,8.545607772971142,490.503173828125,0,0
1731239145507786,0.0112850135,-0.0038483222,0.00027692347,-0.0837972,0.11256607,-9.951546,47.3977503,8.545607799999999,490.511,0.029999999329447746,-0.019999999552965164,-0.019999999552965164,-0.07000000029802322,47.3977504289682,8.545607750011415,490.51568603515625,0,0
1731239145909189,0.003295527,-0.01290307,0.0029400885,-0.1077392,0.14488782,-9.931193,47.3977503,8.5456076,490.533,0.019999999552965164,0.0,-0.019999999552965164,-0.07000000029802322,47.39775037770443,8.545607640922338,490.53955078125,0,0
1731239146308672,0.0032955348,-0.009973591,-0.000522018,-0.0885856,0.18080083,-9.9288,47.3977503,8.5456075,490.559,0.019999999552965164,0.0,-0.029999999329447746,-0.04999999701976776,47.397750406056055,8.545607546754425,490.5588684082031,0,0
1731239146711547,0.00036604863,-0.006777799,0.0029400827,-0.10055659,0.18439211,-9.947953,47.3977504,8.5456075,490.583,0.019999999552965164,0.03999999910593033,-0.009999999776482582,-0.03999999910593033,47.397750433894295,8.54560743930196,490.5743103027344,0,0
1731239147108751,0.011817644,-0.0038483192,0.00054324797,-0.107739195,0.1568588,-9.9288,47.3977505,8.5456073,490.596,0.019999999552965164,0.04999999701976776,-0.009999999776482582,-0.07000000029802322,47.39775053647499,8.54560740326419,490.5863342285156,0,0
1731239147507841,0.007822899,-0.00810938,0.0018748252,-0.098162405,0.1532675,-9.941968,47.397750599999995,8.5456073,490.62600000000003,0.009999999776482582,0.0,0.0,-0.04999999701976776,47.39775068598316,8.545607381166954,490.59930419921875,0,0
1731239147908162,-0.0022971127,-0.0046472643,-0.0005220205,-0.08978271,0.13052261,-9.951546,47.397750599999995,8.5456073,490.62600000000003,0.0,0.019999999552965164,-0.009999999776482582,-0.04999999701976776,47.39775074202429,8.545607369833197,490.6095275878906,0,0
1731239148308674,0.0022302573,-0.014234649,-0.00025569528,-0.13766672,0.17481536,-9.9288,47.397750599999995,8.5456074,490.642,0.009999999776482582,0.0,0.009999999776482582,-0.04999999701976776,47.397750742078316,8.545607326326369,490.6189270019531,0,0
1731239148707919,-0.0030960583,-0.0035820033,-0.0034514968,-0.1221044,0.16284432,-9.934784,47.397750599999995,8.5456075,490.657,0.019999999552965164,-0.009999999776482582,0.019999999552965164,-0.019999999552965164,47.39775073298711,8.54560734489326,490.62530517578125,0,0
1731239149107863,0.00036605165,0.00041273542,-0.0013209707,-0.16280584,0.17242111,-9.961121,47.397750599999995,8.5456077,490.653,0.029999999329447746,0.0,0.019999999552965164,-0.019999999552965164,47.397750704501675,8.545607444300394,490.6289978027344,0,0
1731239149507859,0.0035618444,-0.0019841085,-0.0021199177,-0.12808992,0.17720951,-9.968304,47.397750599999995,8.5456077,490.657,0.029999999329447746,0.0,0.029999999329447746,0.0,47.39775067949178,8.545607555345088,490.6319274902344,0,0
1731239149908493,0.0014313154,0.0017443171,-0.0002557074,-0.11372471,0.147282,-9.941968,47.397750699999996,8.545608,490.664,0.029999999329447746,0.0,0.04999999701976776,0.029999999329447746,47.39775067885277,8.54560768628789,490.63250732421875,0,0
1731239150309156,0.0022302677,0.008668535,-0.0026525515,-0.09217689,0.1664356,-9.964711,47.397750699999996,8.5456082,490.68600000000004,0.029999999329447746,0.029999999329447746,0.04999999701976776,-0.029999999329447746,47.39775069384694,8.545607912621819,490.6317138671875,0,0
1731239150708271,0.0048934277,-0.00091884116,-0.0037178157,-0.0885856,0.16045012,-9.9299965,47.397750699999996,8.5456082,490.696,0.019999999552965164,0.019999999552965164,0.029999999329447746,-0.029999999329447746,47.39775076235378,8.545608148824094,490.6372985839844,0,0
1731239151107934,0.003561845,-0.002516741,-0.0026525497,-0.12569572,0.14009939,-9.913238,47.3977508,8.5456083,490.712,0.009999999776482582,0.019999999552965164,0.019999999552965164,-0.03999999910593033,47.397750830775564,8.54560830733941,490.644775390625,0,0
1731239151507768,0.0070239548,-0.002516741,-0.00052202085,-0.10414792,0.17720956,-9.922816,47.3977508,8.5456083,490.725,0.009999999776482582,-0.009999999776482582,-0.029999999329447746,-0.08999999612569809,47.39775088317733,8.545608337692343,490.6493225097656,0,0
1731239151909895,-0.00096552726,-0.014234649,0.0008095647,-0.08738849,0.16404141,-9.886901,47.3977508,8.545608099999999,490.73400000000004,0.019999999552965164,0.0,-0.03999999910593033,-0.019999999552965164,47.39775087061516,8.545608224256778,490.6602783203125,0,0
1731239152308289,0.0046271165,-0.016631493,-0.0026525485,-0.1185131,0.1496762,-9.931193,47.3977508,8.545608,490.737,0.029999999329447746,0.0,-0.03999999910593033,0.009999999776482582,47.39775084252643,8.545607996978712,490.6622009277344,0,0
1731239152710466,0.0006323685,-0.007576747,-0.00052202545,-0.13048412,0.18439214,-9.921617,47.397750699999996,8.5456079,490.755,0.019999999552965164,0.0,0.0,-0.009999999776482582,47.3977508253663,8.545607798197054,490.6641845703125,0,0
1731239153108074,9.9735335e-05,0.0022769496,-0.0010546538,-0.1113305,0.18199791,-9.933588,47.3977508,8.5456077,490.76800000000003,0.0,0.0,-0.019999999552965164,-0.04999999701976776,47.39775081565602,8.545607732674094,490.66180419921875,0,0
1731239153507459,0.001165003,-0.0054462184,-0.0018536033,-0.11611891,0.1568588,-9.889295,47.3977508,8.5456077,490.771,0.0,0.019999999552965164,0.0,-0.05999999865889549,47.397750805533036,8.545607706377863,490.6691589355469,0,0
1731239153908627,0.008621849,-0.0035820073,-0.00025570704,-0.1484406,0.17122401,-9.886901,47.3977508,8.545607799999999,490.794,0.009999999776482582,0.009999999776482582,0.019999999552965164,-0.04999999701976776,47.39775085073087,8.545607671640878,490.6747741699219,0,0
1731239154308249,-2.788769,-1.2494127,0.7422033,-0.19752176,0.104186215,-0.86674577,47.3977509,8.5456079,490.784,0.04999999701976776,0.03999999910593033,0.019999999552965164,0.429999977350235,47.39775100414286,8.54560784257823,490.544921875,1,3
1731239154707664,-5.9645734,-0.8754994,1.375836,0.1999157,0.44296566,-0.012015756,47.3977514,8.5456083,489.92,0.29999998211860657,0.26999998092651367,0.17000000178813934,3.93999981880188,47.39775152240018,8.545608234170619,489.2999267578125,1,3
1731239155108828,0.003561843,-0.0062451656,-0.0015872886,-0.1005566,0.15566134,9.704851,47.3977515,8.5456102,488.092,0.0,0.0,0.019999999552965164,0.009999999776482582,47.39775171848866,8.54561268133979,486.4513854980469,1,3
1731239155508796,0.0014313125,-0.006777798,0.0002769199,-0.12090731,0.17002659,9.714429,47.3977514,8.5456102,488.10900000000004,0.0,-0.009999999776482582,-0.009999999776482582,-0.019999999552965164,47.397751673360155,8.545620665707224,483.1441345214844,1,3
1731239155909178,0.0035618455,-0.0070441137,0.0008095577,-0.15801743,0.18678598,9.706048,47.3977514,8.5456103,488.098,0.0,0.009999999776482582,0.0,-0.009999999776482582,47.39775200320591,8.545623766665292,480.34332275390625,1,3
1731239156309679,0.0008986839,-0.0059788497,-0.0007883372,-0.11611892,0.20354539,9.671331,47.3977514,8.5456103,488.107,0.0,0.0,0.0,-0.03999999910593033,47.39775246910907,8.545622454177357,478.29278564453125,1,3
1731239156711431,0.003561849,-0.007843062,-0.0023862356,-0.1304841,0.18199757,9.698866,47.3977514,8.5456103,488.113,0.0,-0.019999999552965164,0.0,0.07000000029802322,47.39775252971598,8.545617783171439,487.4023742675781,1,3
1731239157107819,0.0022302652,-0.0033156888,-0.0010546531,-0.12569572,0.15207005,9.690485,47.3977514,8.5456102,488.1,0.0,0.0,0.0,0.009999999776482582,47.39775254325275,8.545615193537545,488.50616455078125,1,3
1731239157511532,0.0035618478,-0.0051799007,-0.00025570384,-0.1424551,0.17601207,9.70485,47.3977514,8.5456102,488.1,0.0,0.0,0.019999999552965164,0.0,47.39775227824345,8.545613135219515,489.76226806640625,1,3
1731239157907604,0.0035618432,-0.0043809526,1.0611414e-05,-0.12449864,0.13770488,9.688094,47.3977514,8.5456103,488.096,0.0,-0.009999999776482582,-0.009999999776482582,-0.009999999776482582,47.3977520915127,8.545612498033202,489.97564697265625,1,3
1731239158309829,0.0022302647,-0.0030493725,-0.0015872873,-0.15322904,0.14009905,9.676122,47.3977515,8.5456103,488.108,0.0,0.0,0.009999999776482582,0.05999999865889549,47.39775192520402,8.545612070560043,490.0413513183594,1,3
1731239158711089,0.0054260576,-0.0035820054,-0.0021199172,-0.13646963,0.1831947,9.707246,47.3977514,8.5456103,488.103,0.0,0.0,-0.009999999776482582,0.019999999552965164,47.39775200961679,8.545611928939163,489.98974609375,1,3
1731239159102351,0.0024965808,-0.0046472657,0.00240746,-0.14604643,0.15805556,9.708444,47.3977514,8.5456103,488.10200000000003,0.0,0.0,0.009999999776482582,0.019999999552965164,47.39775177444122,8.545611540911075,489.9264831542969,1,3
