timestamp,gyro_rad[0],gyro_rad[1],gyro_rad[2],accelerometer_m_s2[0],accelerometer_m_s2[1],accelerometer_m_s2[2],latitude_deg,longitude_deg,altitude_msl_m,vel_m_s,vel_n_m_s,vel_e_m_s,vel_d_m_s,lat,lon,alt,motor_failure_flag,failed_motor
1731240087284183,0.0027628979,-0.008109378,-0.0013209671,-0.16160873,0.17481531,-9.963514,47.3977508,8.5456074,488.107,0.0,0.009999999776482582,0.009999999776482582,0.0,47.39775080548429,8.545607334635442,488.1511535644531,0,0
1731240087383902,0.00249658,-0.00810938,-0.0021199153,-0.12330152,0.18080081,-10.005414,47.3977508,8.5456074,488.096,0.0,0.0,-0.009999999776482582,0.009999999776482582,47.397750818241505,8.545607362589934,488.1507263183594,0,0
1731240087784488,0.004627119,-0.008908326,-0.0007883332,-0.12090732,0.20115152,-9.935981,47.3977508,8.5456074,488.086,0.0,0.009999999776482582,0.0,0.0,47.39775084257578,8.545607371297223,488.1480407714844,0,0
1731240088184532,0.0040944703,-0.007843063,0.00027692431,-0.13048412,0.18798342,-9.959924,47.3977508,8.5456074,488.104,0.0,0.009999999776482582,0.0,-0.029999999329447746,47.39775087845248,8.545607370948513,488.14276123046875,0,0
1731240088584527,0.0035618434,-0.0049135857,-0.00025570698,-0.14245512,0.1460849,-9.955136,47.3977508,8.5456074,488.099,0.0,0.0,-0.009999999776482582,-0.009999999776482582,47.397750922637094,8.54560737511498,488.14324951171875,0,0
1731240088984934,0.0019639486,-0.005446218,0.00027692495,-0.16879134,0.17002693,-9.969501,47.3977508,8.5456074,488.10900000000004,0.0,0.0,0.0,-0.03999999910593033,47.39775094023107,8.54560733069219,488.1429748535156,0,0
1731240089385937,0.20889153,0.061399132,0.014924673,-0.14844061,0.061090738,-10.348981,47.397750699999996,8.5456073,488.116,0.0,-0.009999999776482582,0.0,0.0,47.39775091404716,8.545607297198362,488.1529235839844,0,0
1731240089786014,-0.23372573,-0.19959079,-0.003450874,-0.052672572,0.09939798,-10.872116,47.397750699999996,8.5456074,488.127,0.09999999403953552,-0.08999999612569809,-0.04999999701976776,-0.14000000059604645,47.397750589612,8.545607037437545,488.20684814453125,0,0
1731240090183317,-0.034255035,-0.018229399,-0.009044146,-0.06823487,0.10538346,-9.859367,47.3977499,8.5456066,488.253,0.32999998331069946,-0.2800000011920929,-0.2199999988079071,-0.5099999904632568,47.39774991625442,8.545606270033042,488.3627014160156,0,0
1731240090583809,-0.04038031,-0.036338903,-0.007179941,-0.0706291,0.11017189,-10.229273,47.397749,8.5456056,488.467,0.2800000011920929,-0.22999998927116394,-0.1599999964237213,-0.5699999928474426,47.39774918160148,8.545605456011742,488.5634460449219,0,0
1731240090984370,-0.008688688,-0.0014514878,-0.010642039,-0.07661455,0.17720951,-10.077238,47.397748299999996,8.5456048,488.713,0.14999999105930328,-0.10999999940395355,-0.08999999612569809,-0.6399999856948853,47.39774860220221,8.54560492428986,488.8095703125,0,0
1731240091385932,0.008888169,-0.0027830563,-0.005848341,-0.087388486,0.17361821,-9.999429,47.397748199999995,8.5456044,488.985,0.019999999552965164,0.029999999329447746,-0.03999999910593033,-0.699999988079071,47.39774838675857,8.545604724662107,489.0675354003906,0,0
1731240091785923,0.028595563,-0.012104117,-0.0069136075,-0.11611889,0.20474285,-9.913237,47.3977485,8.5456045,489.26,0.09999999403953552,0.09999999403953552,0.03999999910593033,-0.6800000071525574,47.397748602242814,8.545604726855645,489.33905029296875,0,0
1731240092186323,0.025133453,0.0073369523,-0.002652542,-0.17357975,0.25621817,-9.805497,47.397748899999996,8.545604899999999,489.535,0.1599999964237213,0.12999999523162842,0.07000000029802322,-0.6499999761581421,47.39774902159657,8.545604990443344,489.5943298339844,0,0
1731240092584518,0.018475551,0.0049401126,-0.0013209638,-0.16639717,0.22030516,-9.758813,47.397749499999996,8.5456053,489.798,0.17999999225139618,0.14999999105930328,0.10999999940395355,-0.5999999642372131,47.39774948645695,8.545605419622781,489.8368225097656,0,0
1731240092984211,0.015013439,0.0014779973,-0.0015872747,-0.1376667,0.21671379,-8.7197275,47.397749999999995,8.545605799999999,490.024,0.17000000178813934,0.14000000059604645,0.07999999821186066,-0.5399999618530273,47.3977499461458,8.545605930279883,490.0402526855469,0,0
1731240093384446,0.012882909,-0.004647272,-0.0010546534,-0.11252761,0.21671385,-10.046115,47.3977505,8.5456064,490.14300000000003,0.14000000059604645,0.10999999940395355,0.10999999940395355,-0.12999999523162842,47.39775037580615,8.545606324723959,490.1320495605469,0,0
1731240093784438,0.008888165,0.0049401126,-0.0029188723,-0.15921457,0.19875737,-9.987459,47.3977508,8.5456068,490.208,0.09999999403953552,0.07999999821186066,0.07999999821186066,-0.17000000178813934,47.39775072151379,8.54560680237337,490.2098083496094,0,0
1731240094186587,0.0064913225,-0.0073104305,-0.0015872861,-0.12569574,0.15446462,-9.931194,47.397751,8.5456071,490.293,0.04999999701976776,0.029999999329447746,0.05999999865889549,-0.1899999976158142,47.39775094920675,8.54560717888265,490.283203125,0,0
1731240094586561,-0.003895006,-0.0033156893,-0.0066472907,-0.10893628,0.16284429,-9.868944,47.3977511,8.5456074,490.362,0.009999999776482582,-0.019999999552965164,0.029999999329447746,-0.1599999964237213,47.39775102167496,8.54560742239513,490.3489074707031,0,0
1731240094986320,-0.008688705,-0.008109368,0.00054323085,-0.12689285,0.18558924,-9.841412,47.397751,8.5456073,490.427,0.029999999329447746,-0.03999999910593033,-0.009999999776482582,-0.17000000178813934,47.397750943002656,8.545607520810927,490.4064636230469,0,0
1731240095386287,-0.0014981697,-0.014234644,-0.0018535956,-0.09935948,0.12932548,-9.854579,47.3977508,8.5456072,490.468,0.04999999701976776,-0.03999999910593033,0.0,-0.12999999523162842,47.397750801914235,8.5456074507666,490.4567565917969,0,0
1731240095783266,-0.007357119,-0.0086420085,0.0008095589,-0.08020589,0.159253,-9.890493,47.397750599999995,8.545607,490.509,0.04999999701976776,-0.05999999865889549,-0.07000000029802322,-0.07000000029802322,47.39775067376588,8.545607388307491,490.4972229003906,0,0
1731240096183851,-0.006824491,-0.028349403,0.0008095801,-0.13168125,0.13531101,-9.927602,47.3977505,8.5456068,490.547,0.04999999701976776,-0.019999999552965164,-0.029999999329447746,-0.11999999731779099,47.39775051837825,8.545607107345054,490.52362060546875,0,0
1731240096584313,0.005159742,-0.005179902,-0.00025570267,-0.0742204,0.14847912,-9.940772,47.3977504,8.5456067,490.584,0.029999999329447746,0.0,-0.029999999329447746,-0.04999999701976776,47.39775044142592,8.5456068676846,490.5535888671875,0,0
1731240096984725,0.004627106,-0.012370437,0.0010758702,-0.104147896,0.18199794,-9.913238,47.3977503,8.5456066,490.607,0.009999999776482582,-0.009999999776482582,0.0,-0.08999999612569809,47.3977504584418,8.545606753410024,490.573486328125,0,0
1731240097385338,0.002496581,0.0012116858,1.0609647e-05,-0.1197102,0.17122401,-9.912039,47.3977503,8.5456066,490.625,0.009999999776482582,-0.029999999329447746,0.0,-0.05999999865889549,47.397750448154405,8.545606754416077,490.59405517578125,0,0
1731240097786068,-0.008156063,-0.006245167,-0.0018536082,-0.0897827,0.15087329,-9.943164,47.3977503,8.5456065,490.648,0.009999999776482582,0.0,0.0,-0.05999999865889549,47.39775036331983,8.545606779546265,490.60821533203125,0,0
1731240098186831,0.0030292133,-0.013702015,-0.0039841305,-0.1209073,0.183195,-9.882112,47.3977503,8.5456067,490.652,0.009999999776482582,0.0,0.019999999552965164,-0.019999999552965164,47.39775033771473,8.545606760252836,490.6209716796875,0,0
1731240098583522,-0.0020307926,-0.0027830587,-0.00025570745,-0.14844064,0.17601243,-9.974291,47.3977503,8.5456068,490.664,0.029999999329447746,0.009999999776482582,0.019999999552965164,-0.009999999776482582,47.39775035531251,8.545606834784442,490.62652587890625,0,0
1731240098984023,0.0032955313,-0.0027830573,-0.00052202394,-0.1005566,0.19995444,-9.8976755,47.3977503,8.545607,490.682,0.03999999910593033,0.009999999776482582,0.029999999329447746,0.0,47.39775038805268,8.545606932991225,490.6309814453125,0,0
1731240099384288,0.0030292086,-0.0014514744,0.0024074542,-0.1089363,0.19037762,-9.961122,47.3977504,8.5456072,490.681,0.03999999910593033,0.009999999776482582,0.029999999329447746,-0.05999999865889549,47.39775042545499,8.545607063589376,490.6339416503906,0,0
1731240099784725,-0.001231845,-0.001717791,-0.0053157113,-0.08858559,0.18558922,-9.925208,47.3977505,8.5456073,490.692,0.03999999910593033,0.0,0.05999999865889549,-0.009999999776482582,47.39775045823059,8.545607201549503,490.64190673828125,0,0
1731240100183639,-0.0012318412,0.009733803,-0.0015872772,-0.13048412,0.18678632,-9.928801,47.397750599999995,8.5456076,490.706,0.03999999910593033,0.019999999552965164,0.019999999552965164,-0.019999999552965164,47.39775047136669,8.545607456612712,490.64703369140625,0,0
1731240100583370,0.004627109,-0.011305173,-0.0018536056,-0.1029508,0.17840663,-9.913239,47.397750699999996,8.5456077,490.709,0.029999999329447746,0.0,0.0,-0.019999999552965164,47.397750536347466,8.54560759027793,490.6511535644531,0,0
1731240100983396,-0.0030960564,-0.009174641,-0.0031851984,-0.10534502,0.14728202,-9.932391,47.397750699999996,8.5456077,490.728,0.019999999552965164,0.029999999329447746,0.019999999552965164,-0.009999999776482582,47.39775056557702,8.54560758714689,490.6568298339844,0,0
1731240101383560,0.01075238,-0.0025167372,-0.004783079,-0.10893629,0.14608489,-9.941966,47.3977508,8.545607799999999,490.744,0.019999999552965164,0.0,0.0,-0.019999999552965164,47.3977506467726,8.545607625830678,490.658935546875,0,0
1731240101784308,-0.00069921085,-0.0062451675,0.00080955925,-0.10414789,0.1532675,-9.902463,47.3977509,8.545608,490.747,0.019999999552965164,0.0,0.019999999552965164,-0.03999999910593033,47.397750698102676,8.545607645235071,490.66314697265625,0,0
1731240102184951,0.0016976299,0.0017443134,-0.0034515006,-0.095768176,0.12693128,-9.910841,47.3977509,8.5456079,490.75600000000003,0.009999999776482582,0.0,0.0,-0.03999999910593033,47.397750715839805,8.545607719511068,490.6685485839844,0,0
1731240102585304,0.0011649996,-0.00571253,0.0021411446,-0.086191386,0.1664356,-9.916828,47.397751,8.545608,490.765,0.009999999776482582,0.0,-0.019999999552965164,-0.019999999552965164,47.39775072360414,8.545607745097833,490.6739501953125,0,0
1731240102985501,0.007023966,-0.0115714865,-0.0015872773,-0.11133051,0.19756025,-9.971895,47.397751,8.545608,490.786,0.009999999776482582,0.019999999552965164,0.009999999776482582,-0.04999999701976776,47.39775074007426,8.545607672033139,490.67608642578125,0,0
1731240103385893,0.00888817,0.0052064247,0.00027692746,-0.14125802,0.20713705,-9.907252,47.3977511,8.545608,490.794,0.009999999776482582,0.0,0.0,0.0,47.39775080472364,8.545607686052646,490.6826477050781,0,0
1731240103783071,0.0035618457,-0.0038483203,-0.001054652,-0.1304841,0.1963631,-9.953937,47.3977511,8.545608,490.807,0.0,0.0,0.0,0.0,47.39775084870778,8.545607716422037,490.6832580566406,0,0
1731240104184726,-0.0012318465,-0.0025167356,-0.0010546533,-0.105344996,0.19995444,-9.924011,47.397751199999995,8.545608,490.831,0.0,0.029999999329447746,0.009999999776482582,-0.07000000029802322,47.397750862819365,8.545607725465821,490.6859436035156,0,0
1731240104584514,0.013149224,-0.0014514768,-0.0018536041,-0.1376667,0.18199791,-9.862959,47.397751199999995,8.545608,490.838,0.0,0.0,0.009999999776482582,-0.029999999329447746,47.39775093490358,8.5456077499471,490.69366455078125,0,0
1731240104979663,0.00169763,-0.007044115,0.00054324314,-0.10773922,0.20833418,-9.915633,47.397751199999995,8.545608,490.845,0.0,0.009999999776482582,-0.009999999776482582,-0.029999999329447746,47.39775097960583,8.545607803288963,490.69952392578125,0,0
1731240105383560,0.004360792,-0.007843062,-0.0010546547,-0.0921769,0.16164719,-9.965908,47.397751199999995,8.5456079,490.878,0.0,-0.009999999776482582,0.0,-0.009999999776482582,47.397751003895735,8.54560776674725,490.7003479003906,0,0
1731240105783716,-1.9378883,1.3562204,-0.49800074,-0.16160877,0.15087318,-3.5302958,47.397751199999995,8.5456079,490.891,0.0,0.0,0.009999999776482582,-0.08999999612569809,47.397751023694475,8.545607709341482,490.6843566894531,0,0
1731240106184574,-4.3459167,0.31120571,-1.2892119,-0.107739195,0.36874548,-0.7578096,47.397751299999996,8.5456077,490.503,0.14000000059604645,0.10999999940395355,-0.08999999612569809,2.5799999237060547,47.39775133015769,8.545607275125338,489.8542175292969,1,2
1731240106584394,0.03791659,0.0057393555,0.058866456,-0.25737682,0.31726995,9.475009,47.3977523,8.5456068,488.721,0.4899999797344208,0.3999999761581421,-0.25999999046325684,6.369999885559082,47.39775241133392,8.545605614595692,487.6266784667969,1,2
1731240106984418,0.002762898,-0.0073104296,-0.0021199188,-0.14724353,0.14129616,9.685698,47.3977526,8.5456057,488.11,0.0,-0.019999999552965164,0.029999999329447746,0.0,47.39775649540042,8.545601530092561,485.04815673828125,1,2
1731240107384903,0.0024965778,-0.009174641,-0.0034514982,-0.1209073,0.15207005,9.691683,47.3977526,8.5456056,488.098,0.0,0.0,0.0,-0.019999999552965164,47.3977610309433,8.54559806178455,482.55548095703125,1,2
1731240107784827,0.0011650004,-0.004114637,-0.00078834075,-0.12808995,0.15326719,9.7252035,47.3977527,8.5456056,488.104,0.0,0.009999999776482582,0.009999999776482582,-0.009999999776482582,47.397762180920445,8.54559722555196,480.71051025390625,1,2
1731240108182389,0.0027628997,-0.006245166,-0.00025570166,-0.12449862,0.17242077,9.706049,47.3977527,8.5456056,488.101,0.0,0.0,0.009999999776482582,-0.019999999552965164,47.397760086352136,8.545599343238626,487.5685729980469,1,2
1731240108585640,0.0043607936,-0.0022504246,-0.0023862335,-0.1352725,0.15087295,9.721609,47.3977527,8.5456056,488.106,0.0,0.009999999776482582,0.0,0.009999999776482582,47.39775798188747,8.545601646745247,488.59320068359375,1,2
1731240108986424,0.0043607913,-0.0059788506,0.0010758743,-0.105344996,0.16044976,9.702457,47.3977526,8.5456056,488.1,0.0,0.0,0.009999999776482582,0.009999999776482582,47.39775622400366,8.545603308924498,489.4712829589844,1,2
1731240109383228,0.0030292126,-0.009707275,-0.00052202144,-0.13407542,0.15087296,9.6940775,47.3977526,8.5456056,488.10900000000004,0.0,0.0,-0.019999999552965164,-0.029999999329447746,47.39775529465144,8.545604129518509,489.6362609863281,1,2
1731240109783843,0.0035618453,-0.0030493722,-0.0021199188,-0.14844064,0.15446426,9.69288,47.3977526,8.5456056,488.105,0.0,-0.009999999776482582,-0.019999999552965164,-0.019999999552965164,47.39775480652797,8.545604438128878,489.62451171875,1,2
1731240110184457,0.003561845,-0.0057125343,-0.0018535976,-0.11252757,0.13770485,9.706046,47.3977526,8.5456057,488.099,0.0,0.0,-0.009999999776482582,0.0,47.39775437922439,8.545604467999969,489.59375,1,2
1731240110585339,0.0022302645,-0.004913584,-0.0031851844,-0.129287,0.15805554,9.682105,47.3977526,8.5456057,488.091,0.0,0.0,0.0,-0.009999999776482582,47.39775417639051,8.545604500410652,489.5129089355469,1,2
