timestamp,gyro_rad[0],gyro_rad[1],gyro_rad[2],accelerometer_m_s2[0],accelerometer_m_s2[1],accelerometer_m_s2[2],latitude_deg,longitude_deg,altitude_msl_m,vel_m_s,vel_n_m_s,vel_e_m_s,vel_d_m_s,lat,lon,alt,motor_failure_flag,failed_motor
1731238825791765,0.00036605936,-0.00890833,-0.0023862312,-0.12449862,0.18080048,9.6856985,47.3977515,8.5456103,488.10900000000004,0.0,0.0,-0.009999999776482582,-0.07000000029802322,47.397751962019804,8.545610395226758,489.6401672363281,0,0
1731238838083052,0.0038281616,-0.007843063,-0.004783079,-0.15203194,0.16284429,-9.964713,47.3977508,8.5456074,488.092,0.0,-0.019999999552965164,0.009999999776482582,-0.029999999329447746,47.39775080226839,8.545607319166118,488.13970947265625,0,0
1731238838384789,0.0038281656,-0.007044116,-0.0031851789,-0.14604643,0.17122403,-9.938376,47.3977508,8.5456075,488.091,0.0,0.019999999552965164,0.009999999776482582,0.0,47.39775075878751,8.545607326879512,488.1426696777344,0,0
1731238838783011,0.003295532,-0.008109377,-0.002918867,-0.099359475,0.18080081,-9.987455,47.3977508,8.5456074,488.096,0.0,0.0,0.0,0.019999999552965164,47.3977507804404,8.545607394229581,488.14520263671875,0,0
1731238839183460,0.186521,0.00014640525,-0.001054686,-0.17597394,0.1520704,-10.286733,47.3977508,8.5456074,488.09700000000004,0.0,0.009999999776482582,-0.019999999552965164,0.009999999776482582,47.39775081456395,8.545607443958788,488.1440124511719,0,0
1731238839583169,-0.18791935,-0.13647385,-0.0007880344,-0.10295079,0.11256608,-10.840989,47.397750699999996,8.5456074,488.142,0.09999999403953552,-0.07999999821186066,-0.029999999329447746,-0.12999999523162842,47.39775061762796,8.545607216101645,488.1899108886719,0,0
1731238839983884,-0.03292347,-0.0115714865,-0.0039841146,-0.12689283,0.09460956,-9.890492,47.3977499,8.5456068,488.27,0.26999998092651367,-0.23999999463558197,-0.14000000059604645,-0.4899999797344208,47.39775010461067,8.545606642086346,488.3408508300781,0,0
1731238840383944,-0.036651894,-0.028882017,-0.00611462,-0.080205865,0.101792164,-10.195751,47.3977491,8.545606099999999,488.478,0.2199999988079071,-0.1899999976158142,-0.10999999940395355,-0.5600000023841858,47.39774947343127,8.54560614197723,488.54559326171875,0,0
1731238840782775,-0.013748704,-0.0057125227,-0.006114665,-0.0897827,0.1616472,-10.060481,47.3977486,8.5456056,488.726,0.11999999731779099,-0.11999999731779099,-0.04999999701976776,-0.6800000071525574,47.39774897730167,8.545605789826087,488.7843017578125,0,0
1731238841186212,0.0014313174,-0.0025167405,-0.002119921,-0.11252763,0.17122403,-9.957532,47.3977484,8.5456054,489.00100000000003,0.009999999776482582,0.0,-0.009999999776482582,-0.6699999570846558,47.397748693113634,8.545605672280402,489.0520935058594,0,0
1731238841585967,0.011817649,-0.008642005,-0.00771256,-0.14724353,0.20474283,-9.886901,47.3977485,8.5456054,489.279,0.07999999821186066,0.03999999910593033,0.009999999776482582,-0.699999988079071,47.39774873299857,8.54560572623833,489.31951904296875,0,0
1731238841985325,0.009953434,-0.011571486,-0.0029188646,-0.13287829,0.23107901,-9.781554,47.397748899999996,8.5456057,489.55,0.14000000059604645,0.11999999731779099,0.04999999701976776,-0.6699999570846558,47.39774895369351,8.54560583883022,489.5758056640625,0,0
1731238842383190,0.018475547,0.0041411663,-0.0018535894,-0.13886383,0.23945875,-9.773176,47.397749499999996,8.5456059,489.807,0.17000000178813934,0.17999999225139618,0.05999999865889549,-0.6200000047683716,47.397749362218505,8.545606099436448,489.82342529296875,0,0
1731238842782548,0.026731346,-0.007576751,-0.0018535898,-0.14365222,0.20713702,-8.693391,47.397750099999996,8.5456063,490.023,0.17000000178813934,0.17999999225139618,0.03999999910593033,-0.4699999988079071,47.397749917612465,8.545606381941042,490.02783203125,0,0
1731238843183182,0.01794292,-0.0067777946,-0.0021199128,-0.15322907,0.22030516,-10.085621,47.397750699999996,8.5456066,490.13,0.14999999105930328,0.1599999964237213,0.05999999865889549,-0.1599999964237213,47.39775049886664,8.545606581830572,490.11566162109375,0,0
1731238843583842,0.0142144915,0.0049401047,0.0013421857,-0.14006089,0.17960371,-9.908446,47.3977511,8.545607,490.2,0.09999999403953552,0.07000000029802322,0.03999999910593033,-0.17000000178813934,47.39775103754082,8.545606842536786,490.20220947265625,0,0
1731238843986251,-0.01002028,-0.0070441053,-0.0013209756,-0.14125799,0.15087329,-9.929995,47.397751299999996,8.5456072,490.252,0.05999999865889549,0.019999999552965164,0.05999999865889549,-0.17000000178813934,47.39775126012416,8.545607078927212,490.2735595703125,0,0
1731238844384623,-0.006025536,-0.0003862106,-0.0023862277,-0.14724351,0.1448878,-9.871339,47.397751299999996,8.5456075,490.318,0.04999999701976776,-0.009999999776482582,0.05999999865889549,-0.1599999964237213,47.39775128062106,8.545607307591553,490.3335266113281,0,0
1731238844784993,-0.008156063,0.002010637,1.0605471e-05,-0.10414789,0.11496026,-9.945558,47.3977511,8.545607799999999,490.365,0.05999999865889549,-0.03999999910593033,0.029999999329447746,-0.14000000059604645,47.39775121334541,8.545607588868446,490.385009765625,0,0
1731238845184968,-0.0062918463,-0.0083757015,-0.0010546673,-0.08499429,0.1556617,-9.890494,47.3977509,8.5456079,490.41200000000003,0.05999999865889549,-0.05999999865889549,0.019999999552965164,-0.09999999403953552,47.39775107299677,8.545607769557288,490.4310302734375,0,0
1731238845582669,-0.006824486,-0.0067777946,-0.0007883392,-0.0969653,0.16763273,-9.946755,47.397750699999996,8.545608,490.458,0.05999999865889549,-0.05999999865889549,0.0,-0.07999999821186066,47.39775087082219,8.545607845041369,490.46685791015625,0,0
1731238845985266,2.2049334,-1.3479396,-0.5009344,-0.022745043,0.20115143,-3.3962197,47.3977505,8.5456079,490.49,0.04999999701976776,-0.07000000029802322,-0.019999999552965164,-0.11999999731779099,47.39775063326721,8.545607869220836,490.4771423339844,0,0
1731238846385438,5.367166,-0.60412353,-1.2120019,0.037109997,-0.039465893,-0.38670832,47.397750099999996,8.545608,490.076,0.20999999344348907,-0.20999999344348907,0.05999999865889549,2.669999837875366,47.397749811072686,8.545608017956686,489.6473693847656,1,1
1731238846785342,0.0008986883,-0.007843063,0.0005432395,-0.09457108,0.16404103,9.665345,47.397748799999995,8.5456088,488.207,0.5899999737739563,-0.4599999785423279,0.35999998450279236,6.960000038146973,47.39774947850083,8.545609829142807,487.42974853515625,1,1
1731238847185368,0.0027628955,-0.0065114824,-0.003717812,-0.0945711,0.17122367,9.673726,47.397749,8.545609899999999,488.099,0.0,-0.009999999776482582,0.0,0.0,47.39774940208297,8.545612331098352,484.8121032714844,1,1
1731238847585665,0.00036605427,-0.0038483224,-0.002386237,-0.0945711,0.17242078,9.6438,47.397749,8.545609899999999,488.103,0.0,0.019999999552965164,0.0,0.0,47.39774970902207,8.545614284886156,482.4316101074219,1,1
1731238847986382,0.0067576384,-0.0059788497,-0.0015872872,-0.113724686,0.16882946,9.674924,47.397749,8.545609899999999,488.09700000000004,0.0,0.019999999552965164,0.0,-0.029999999329447746,47.3977499651666,8.54561372577362,480.7365417480469,1,1
1731238848386447,0.004094481,-0.007310431,-0.0015872868,-0.1005566,0.15207008,9.678515,47.397749,8.545609899999999,488.112,0.0,-0.009999999776482582,0.0,-0.009999999776482582,47.39774983794476,8.545611836168106,487.14227294921875,1,1
1731238848782836,0.0030292112,-0.0065114815,0.00027692807,-0.105344996,0.12932514,9.670136,47.397749,8.545609899999999,488.1,0.0,0.009999999776482582,-0.009999999776482582,-0.029999999329447746,47.39774921262007,8.545610061038293,489.23236083984375,1,1
1731238849183332,0.005426055,-0.008109379,0.00027692676,-0.113724686,0.17960337,9.666545,47.397749,8.545609899999999,488.106,0.0,0.0,0.0,-0.029999999329447746,47.39774889280018,8.545609343466584,489.7482604980469,1,1
1731238849583400,0.0035618476,-0.0070441146,-0.004516762,-0.09935949,0.16763234,9.65936,47.397749,8.545609899999999,488.111,0.0,-0.009999999776482582,0.0,0.0,47.39774882717674,8.545608914239518,489.8580322265625,1,1
1731238849984697,0.0054260585,-0.0035820047,-0.0021199186,-0.1376667,0.17242078,9.662953,47.397749,8.545609899999999,488.1,0.0,0.0,0.0,-0.009999999776482582,47.39774866928382,8.545609158626457,489.87640380859375,1,1
1731238850384425,0.0046271123,-0.005446217,-0.0031851833,-0.11611892,0.17002657,9.653378,47.397749,8.5456098,488.096,0.0,0.0,0.0,0.009999999776482582,47.39774872730278,8.545608927781508,489.8061218261719,1,1
1731238850784890,0.0008986876,-0.0067777988,-0.00078833615,-0.124498606,0.15087293,9.710837,47.397749,8.545609899999999,488.096,0.0,0.0,0.019999999552965164,0.04999999701976776,47.39774865639975,8.545609297719606,489.7359313964844,1,1
