timestamp,gyro_rad[0],gyro_rad[1],gyro_rad[2],accelerometer_m_s2[0],accelerometer_m_s2[1],accelerometer_m_s2[2],latitude_deg,longitude_deg,altitude_msl_m,vel_m_s,vel_n_m_s,vel_e_m_s,vel_d_m_s,lat,lon,alt,motor_failure_flag,failed_motor
1731239718522413,0.002496579,-0.0073104305,-0.0002557129,-0.13407543,0.16164722,-9.9850645,47.3977508,8.5456074,488.096,0.0,-0.009999999776482582,-0.009999999776482582,0.009999999776482582,47.39775083052253,8.545607309535718,488.1429138183594,0,0
1731239718621207,0.006491327,-0.0070441137,-0.0023862284,-0.13287832,0.19516602,-9.9539385,47.3977508,8.5456074,488.08500000000004,0.0,0.0,0.009999999776482582,-0.019999999552965164,47.39775082802205,8.545607309580424,488.14263916015625,0,0
1731239719022966,0.0038281626,-0.004114637,-0.0010546542,-0.15322904,0.19995445,-9.949151,47.3977508,8.5456074,488.105,0.0,0.0,0.009999999776482582,0.029999999329447746,47.39775081926776,8.545607359301766,488.1424865722656,0,0
1731239719423041,0.17666732,0.04941484,0.0074677393,-0.16160873,0.097003765,-10.390881,47.3977508,8.5456074,488.098,0.0,0.009999999776482582,-0.019999999552965164,-0.019999999552965164,47.39775080690965,8.545607426158956,488.1418151855469,0,0
1731239719823170,-0.18552253,-0.18148126,-0.0034513406,-0.105344996,0.1317197,-10.9092245,47.397750699999996,8.5456073,488.136,0.08999999612569809,-0.07999999821186066,-0.029999999329447746,-0.19999998807907104,47.39775058832234,8.545607128387678,488.1984558105469,0,0
1731239720223542,-0.032923467,-0.008109392,-0.004516732,-0.092176914,0.08742696,-9.929997,47.397749999999995,8.5456067,488.272,0.26999998092651367,-0.20999999344348907,-0.17000000178813934,-0.5099999904632568,47.397750068503996,8.54560650427156,488.36981201171875,0,0
1731239720622902,-0.02786348,-0.036871504,-0.0050493744,-0.0969653,0.13890229,-10.135898,47.3977493,8.545606,488.463,0.2199999988079071,-0.17999999225139618,-0.12999999523162842,-0.5299999713897705,47.397749520233766,8.545605889792492,488.57855224609375,0,0
1731239721021720,-0.0054929117,-0.011305164,-0.002119911,-0.0957682,0.159253,-10.077241,47.397748799999995,8.5456054,488.702,0.11999999731779099,-0.07999999821186066,-0.05999999865889549,-0.6299999952316284,47.397749087265595,8.545605471156932,488.8115234375,0,0
1731239721421093,0.008089218,0.0014780031,-0.0029188676,-0.1328783,0.18798341,-10.029356,47.3977486,8.5456051,488.967,0.009999999776482582,0.0,0.0,-0.6699999570846558,47.39774891138794,8.545605335946647,489.0655822753906,0,0
1731239721821464,0.01900818,0.0065380028,-0.0066473046,-0.12928702,0.21551678,-9.944363,47.3977487,8.545605199999999,489.237,0.07999999821186066,0.07000000029802322,0.029999999329447746,-0.6699999570846558,47.39774902308622,8.54560547742597,489.3270568847656,0,0
1731239722219800,0.011817647,-0.00038620934,-0.0031851807,-0.11133052,0.20713708,-9.836625,47.3977492,8.5456053,489.504,0.12999999523162842,0.10999999940395355,0.04999999701976776,-0.5899999737739563,47.39774930980663,8.54560570338799,489.58416748046875,0,0
1731239722622062,0.015812386,-0.008642011,-0.006913608,-0.12210443,0.20953125,-9.842608,47.3977497,8.5456057,489.759,0.14999999105930328,0.12999999523162842,0.04999999701976776,-0.5999999642372131,47.39774968312824,8.545605957352002,489.811767578125,0,0
1731239723023396,0.013948177,-0.008642006,-0.0029188707,-0.19393043,0.22030509,-8.707755,47.3977502,8.545606,489.99,0.14000000059604645,0.11999999731779099,0.03999999910593033,-0.5299999713897705,47.397750094010526,8.545606207983132,490.0119934082031,0,0
1731239723423471,0.01208396,-0.006777799,-0.002918869,-0.14245512,0.23706457,-10.061677,47.397750599999995,8.5456064,490.136,0.11999999731779099,0.08999999612569809,0.03999999910593033,-0.14999999105930328,47.39775047307423,8.54560636027162,490.10870361328125,0,0
1731239723820365,0.0070239515,-0.0062451675,0.0002769312,-0.13168122,0.19037762,-9.941968,47.397751,8.5456067,490.196,0.09999999403953552,0.08999999612569809,0.03999999910593033,-0.20999999344348907,47.39775075746478,8.545606557203282,490.192138671875,0,0
1731239724223341,0.009687114,-0.0038483231,0.0021411374,-0.13527249,0.1891805,-9.904857,47.397751199999995,8.545607,490.26300000000003,0.07999999821186066,0.05999999865889549,0.05999999865889549,-0.1899999976158142,47.3977510158663,8.54560676198985,490.2713928222656,0,0
1731239724622096,0.003828159,0.0030758975,0.0016085072,-0.16160871,0.17122401,-9.888096,47.3977514,8.5456073,490.331,0.05999999865889549,0.019999999552965164,0.05999999865889549,-0.14000000059604645,47.397751216506954,8.545607049171295,490.3377990722656,0,0
1731239725022306,-0.0030960606,-0.0030493713,0.0021411343,-0.104147896,0.15566172,-9.895281,47.3977514,8.5456076,490.394,0.03999999910593033,0.0,0.04999999701976776,-0.14000000059604645,47.39775127692361,8.545607355925672,490.3896179199219,0,0
1731239725522579,0.004893426,-0.0011851599,-0.0026525508,-0.13407542,0.1508733,-9.892886,47.397751299999996,8.545607799999999,490.44,0.03999999910593033,-0.04999999701976776,0.03999999910593033,-0.09999999403953552,47.397751261403414,8.545607601494046,490.4351501464844,0,0
1731239725921475,-0.012150809,-0.0046472526,0.0029400885,-0.118513115,0.15326752,-9.871339,47.397751199999995,8.545607799999999,490.48400000000004,0.04999999701976776,-0.05999999865889549,0.0,-0.11999999731779099,47.39775112839855,8.545607775166205,490.4734802246094,0,0
1731239726322058,2.851554,0.93438554,0.92596835,0.016759282,0.15925287,-1.045114,47.3977509,8.545607799999999,490.423,0.10999999940395355,-0.08999999612569809,-0.019999999552965164,0.9699999690055847,47.39775066261918,8.545607523760017,490.1744384765625,1,4
1731239726521987,4.3122897,0.405744,1.3214742,-0.17118557,-0.10171515,-0.73027635,47.397750599999995,8.5456076,490.034,0.2199999988079071,-0.1899999976158142,-0.11999999731779099,2.8499999046325684,47.39775021813336,8.54560717474983,489.5525207519531,1,4
1731239726920808,0.0014313189,-0.007576747,-0.00025570756,-0.10295078,0.16044976,9.668938,47.3977491,8.5456059,488.205,2.859999895095825,-1.1999999284744263,-2.5899999141693115,3.4700000286102295,47.397749550398444,8.545604541078465,487.541259765625,1,4
1731239727320362,0.0032955236,-0.008908327,-0.002119917,-0.09816239,0.14847876,9.656967,47.3977487,8.545605,488.1,0.0,-0.009999999776482582,0.0,0.0,47.39774886907419,8.545598960422568,485.1315002441406,1,4
1731239727723342,0.004627104,-0.0054462166,0.001075879,-0.105344996,0.2059396,9.6438,47.3977487,8.545605,488.103,0.0,0.0,0.0,0.019999999552965164,47.397748496515526,8.545594200590214,483.0195007324219,1,4
1731239727915219,-0.00096552545,-0.005446222,-0.0013209711,-0.13646965,0.16164687,9.658166,47.3977487,8.545605,488.106,0.0,-0.009999999776482582,0.019999999552965164,0.0,47.397748473395815,8.545592974406098,482.1282653808594,1,4
1731239728316829,0.0056923726,-0.0033156888,-0.0021199193,-0.12689282,0.15207006,9.667742,47.3977487,8.545605,488.105,0.0,0.0,-0.009999999776482582,0.03999999910593033,47.39774894661538,8.545595976416521,481.15826416015625,1,4
1731239728715745,0.00089868385,-0.0049135843,1.0609773e-05,-0.113724686,0.18319465,9.653376,47.3977487,8.545604899999999,488.112,0.0,-0.009999999776482582,0.0,0.009999999776482582,47.39774928634941,8.545600084373817,487.3863525390625,1,4
1731239729117335,0.0022302652,-0.0049135857,-0.0013209727,-0.0993595,0.1843918,9.67253,47.3977487,8.545605,488.105,0.0,0.009999999776482582,0.0,0.0,47.397749396654504,8.545602117522092,488.96783447265625,1,4
1731239729516245,0.0027628948,-0.0035820047,1.061003e-05,-0.14006095,0.15207009,9.678517,47.3977487,8.545605,488.108,0.0,0.0,0.009999999776482582,0.009999999776482582,47.39774938133862,8.545603448698419,489.6260070800781,1,4
1731239729916544,0.0024965832,-0.006777799,-0.0018536006,-0.15203194,0.16523817,9.686895,47.3977487,8.545605,488.116,0.0,0.0,0.0,0.0,47.39774931098452,8.545603887730833,489.7071533203125,1,4
1731239730317265,0.00329553,-0.005179902,-0.0015872874,-0.12689282,0.15446426,9.659363,47.3977487,8.545605,488.103,0.0,0.019999999552965164,0.0,0.009999999776482582,47.39774922627493,8.545604001339626,489.64642333984375,1,4
1731239730715628,0.003828163,-0.0027830568,-0.0023862342,-0.14963771,0.16763237,9.680909,47.3977487,8.545604899999999,488.106,0.0,0.0,0.0,-0.03999999910593033,47.39774918980161,8.54560405118703,489.587646484375,1,4
